{"data": {"stations": [{"short_name": "SJ-F10", "rental_uris": {"ios": "https://sfo.lft.to/lastmile_qr_scan", "android": "https://sfo.lft.to/lastmile_qr_scan"}, "lon": -121.90683424472809, "lat": 37.360854155253826, "capacity": 27, "name": "Kerley Dr at Rosemary St", "region_id": "5", "station_id": "ab8cc22e-0f34-4476-bf81-293cbbb2e69c"}, {"short_name": "SJ-H17", "rental_uris": {"ios": "https://sfo.lft.to/lastmile_qr_scan", "android": "https://sfo.lft.to/lastmile_qr_scan"}, "lon": -121.86796635389327, "lat": 37.3655356585599, "capacity": 23, "name": "Newbury Park Dr at King Rd", "region_id": "5", "station_id": "6994e1e6-bb3c-4309-8207-52e6004a7302"}, {"short_name": "SJ-M4", "rental_uris": {"ios": "https://sfo.lft.to/lastmile_qr_scan", "android": "https://sfo.lft.to/lastmile_qr_scan"}, "lon": -121.91349685192107, "lat": 37.3233446905968, "capacity": 19, "name": "San Carlos St at Meridian Ave", "region_id": "5", "station_id": "68c89d1f-407a-4550-a2b7-ecf0ad7ee422"}, {"short_name": "SJ-K11", "rental_uris": {"ios": "https://sfo.lft.to/lastmile_qr_scan", "android": "https://sfo.lft.to/lastmile_qr_scan"}, "lon": -121.8888891, "lat": 37.3429973, "capacity": 15, "name": "Julian St at 6th St", "region_id": "5", "station_id": "0d48fc9e-6798-46f0-bbb6-67a168800e0b"}, {"short_name": "SJ-J6", "rental_uris": {"ios": "https://sfo.lft.to/lastmile_qr_scan", "android": "https://sfo.lft.to/lastmile_qr_scan"}, "lon": -121.90914899110793, "lat": 37.33677476275722, "capacity": 23, "name": "Stockton Ave at Lenzen Ave", "region_id": "5", "station_id": "d75591d7-080d-46cb-8ada-0fbe6af676fc"}, {"short_name": "SJ-L13", "rental_uris": {"ios": "https://sfo.lft.to/lastmile_qr_scan", "android": "https://sfo.lft.to/lastmile_qr_scan"}, "lon": -121.87438488006593, "lat": 37.34398467798214, "capacity": 19, "name": "17th St at Santa Clara St", "region_id": "5", "station_id": "30429aed-9a47-4fd9-87fa-0db835aa8265"}, {"short_name": "SJ-Q11", "rental_uris": {"ios": "https://sfo.lft.to/lastmile_qr_scan", "android": "https://sfo.lft.to/lastmile_qr_scan"}, "lon": -121.8741186, "lat": 37.3236779, "capacity": 15, "name": "Bestor Art Park", "region_id": "5", "station_id": "46b4ef45-b06b-40eb-9fdf-9bc8ff104a4f"}, {"short_name": "SJ-M14", "rental_uris": {"ios": "https://sfo.lft.to/lastmile_qr_scan", "android": "https://sfo.lft.to/lastmile_qr_scan"}, "lon": -121.86856960181206, "lat": 37.346480293729044, "capacity": 19, "name": "23rd St at Santa Clara St", "region_id": "5", "station_id": "c53990d7-f965-40f4-b305-3435e1c95a71"}, {"short_name": "SJ-I14", "rental_uris": {"ios": "https://sfo.lft.to/lastmile_qr_scan", "android": "https://sfo.lft.to/lastmile_qr_scan"}, "lon": -121.87877833843231, "lat": 37.3600013909666, "capacity": 19, "name": "23rd St at Taylor St", "region_id": "5", "station_id": "7d59176c-49dd-4b07-a5ab-bcc109974db3"}, {"short_name": "SJ-M11-2", "rental_uris": {"ios": "https://sfo.lft.to/lastmile_qr_scan", "android": "https://sfo.lft.to/lastmile_qr_scan"}, "lon": -121.88321471214294, "lat": 37.3371223728942, "capacity": 23, "name": "San Fernando St at 7th St", "region_id": "5", "station_id": "ed707a89-a68d-4921-a4cb-16c268e45a5b"}, {"short_name": "SJ-L10", "rental_uris": {"ios": "https://sfo.lft.to/lastmile_qr_scan", "android": "https://sfo.lft.to/lastmile_qr_scan"}, "lon": -121.889937, "lat": 37.339301, "capacity": 15, "name": "Saint James Park", "region_id": "5", "station_id": "bae9be55-04d4-4641-9781-3d1c4b6950f1"}, {"short_name": "SJ-H10", "rental_uris": {"ios": "https://sfo.lft.to/lastmile_qr_scan", "android": "https://sfo.lft.to/lastmile_qr_scan"}, "lon": -121.9020161, "lat": 37.3509643, "capacity": 27, "name": "Mission St at 1st St", "region_id": "5", "station_id": "0d730ac1-7ce6-45cf-aca6-b412ea46709d"}, {"short_name": "SJ-M7-1", "rental_uris": {"ios": "https://sfo.lft.to/lastmile_qr_scan", "android": "https://sfo.lft.to/lastmile_qr_scan"}, "lon": -121.901782, "lat": 37.329732, "capacity": 35, "name": "San Jose Diridon Station", "region_id": "5", "station_id": "dc2f7685-c3e3-4536-b78b-740479cbb207"}, {"short_name": "SJ-C9", "rental_uris": {"ios": "https://sfo.lft.to/lastmile_qr_scan", "android": "https://sfo.lft.to/lastmile_qr_scan"}, "lon": -121.9187942147255, "lat": 37.36767805240811, "capacity": 23, "name": "Metro Dr at Technology Dr", "region_id": "5", "station_id": "e81efb0f-faee-43dd-b8e0-1e1f0cad61f1"}, {"short_name": "SJ-M6-2", "rental_uris": {"ios": "https://sfo.lft.to/lastmile_qr_scan", "android": "https://sfo.lft.to/lastmile_qr_scan"}, "lon": -121.9049111008644, "lat": 37.326282324105776, "capacity": 19, "name": "Park Ave at Laurel Grove Ln", "region_id": "5", "station_id": "14f62ff9-1893-4379-8fe4-db578da909ee"}, {"short_name": "SJ-L11", "rental_uris": {"ios": "https://sfo.lft.to/lastmile_qr_scan", "android": "https://sfo.lft.to/lastmile_qr_scan"}, "lon": -121.88438951969147, "lat": 37.343208488473465, "capacity": 19, "name": "Saint James St at 9th St", "region_id": "5", "station_id": "218e755d-c0d3-4b33-8afc-b4b0e8ab3a41"}, {"short_name": "SJ-M8-2", "rental_uris": {"ios": "https://sfo.lft.to/lastmile_qr_scan", "android": "https://sfo.lft.to/lastmile_qr_scan"}, "lon": -121.8977018, "lat": 37.3302641, "capacity": 19, "name": "Delmas Ave and San Fernando St", "region_id": "5", "station_id": "6bcc6da3-b25b-4fea-9c30-3eb88e282574"}, {"short_name": "SJ-M9-2", "rental_uris": {"ios": "https://sfo.lft.to/lastmile_qr_scan", "android": "https://sfo.lft.to/lastmile_qr_scan"}, "lon": -121.894902, "lat": 37.333988, "capacity": 11, "name": "Santa Clara St at Almaden Blvd", "region_id": "5", "station_id": "67b039eb-ea61-46c0-8da5-1f56de4ad9ca"}, {"short_name": "SJ-G15", "rental_uris": {"ios": "https://sfo.lft.to/lastmile_qr_scan", "android": "https://sfo.lft.to/lastmile_qr_scan"}, "lon": -121.88012616063496, "lat": 37.37026910678533, "capacity": 19, "name": "De Rome Dr at Sierra Rd", "region_id": "5", "station_id": "3c12fd1d-c7fc-4570-8fa3-1449c096b818"}, {"short_name": "SJ-M10-4", "rental_uris": {"ios": "https://sfo.lft.to/lastmile_qr_scan", "android": "https://sfo.lft.to/lastmile_qr_scan"}, "lon": -121.88927650451659, "lat": 37.33618830029063, "capacity": 11, "name": "Fountain Alley at S 2nd St", "region_id": "5", "station_id": "d12ba265-5bfe-4a00-a19a-a7299822bd65"}, {"short_name": "SJ-L7-2", "rental_uris": {"ios": "https://sfo.lft.to/lastmile_qr_scan", "android": "https://sfo.lft.to/lastmile_qr_scan"}, "lon": -121.9048882, "lat": 37.3319323, "capacity": 23, "name": "The Alameda at Bush St", "region_id": "5", "station_id": "d28bb0a7-8dc5-49be-86c7-9a3395eed019"}, {"short_name": "SJ-I5", "rental_uris": {"ios": "https://sfo.lft.to/lastmile_qr_scan", "android": "https://sfo.lft.to/lastmile_qr_scan"}, "lon": -121.91947817802429, "lat": 37.33802231313689, "capacity": 23, "name": "Asbury St at The Alameda", "region_id": "5", "station_id": "a96032c0-9ff2-4fbe-8f03-6b3f9816947d"}, {"short_name": "SJ-I10", "rental_uris": {"ios": "https://sfo.lft.to/lastmile_qr_scan", "android": "https://sfo.lft.to/lastmile_qr_scan"}, "lon": -121.89584255218504, "lat": 37.35090179274617, "capacity": 23, "name": "5th St at Taylor St", "region_id": "5", "station_id": "8941eac9-fb07-4d76-b623-fae2af79139e"}, {"short_name": "SJ-M11-1", "rental_uris": {"ios": "https://sfo.lft.to/lastmile_qr_scan", "android": "https://sfo.lft.to/lastmile_qr_scan"}, "lon": -121.8841054, "lat": 37.3391456, "capacity": 15, "name": "Santa Clara St at 7th St", "region_id": "5", "station_id": "7ae6ad74-9212-4a2b-bb52-aba03cb533e2"}, {"short_name": "SJ-L7-1", "rental_uris": {"ios": "https://sfo.lft.to/lastmile_qr_scan", "android": "https://sfo.lft.to/lastmile_qr_scan"}, "lon": -121.900084, "lat": 37.332692, "capacity": 23, "name": "SAP Center", "region_id": "5", "station_id": "daac8a55-dd65-4a1e-b0b9-65ec5002c812"}, {"short_name": "SJ-L9", "rental_uris": {"ios": "https://sfo.lft.to/lastmile_qr_scan", "android": "https://sfo.lft.to/lastmile_qr_scan"}, "lon": -121.8940901, "lat": 37.336802, "capacity": 15, "name": "San Pedro Square", "region_id": "5", "station_id": "fa83f661-540e-4720-9323-824c6529b796"}, {"short_name": "SJ-N11", "rental_uris": {"ios": "https://sfo.lft.to/lastmile_qr_scan", "android": "https://sfo.lft.to/lastmile_qr_scan"}, "lon": -121.877349, "lat": 37.333955, "capacity": 19, "name": "San Salvador St at 9th St", "region_id": "5", "station_id": "53d1c097-50e3-494d-bddc-bdab49c7c39b"}, {"short_name": "SJ-J11", "rental_uris": {"ios": "https://sfo.lft.to/lastmile_qr_scan", "android": "https://sfo.lft.to/lastmile_qr_scan"}, "lon": -121.89055323600769, "lat": 37.3477119817597, "capacity": 31, "name": "7th St at Empire St", "region_id": "5", "station_id": "bd05ae96-7adc-422d-84ea-697cd3b73afc"}, {"short_name": "SJ-P8", "rental_uris": {"ios": "https://sfo.lft.to/lastmile_qr_scan", "android": "https://sfo.lft.to/lastmile_qr_scan"}, "lon": -121.8879312, "lat": 37.3229796, "capacity": 19, "name": "Locust St at Grant St", "region_id": "5", "station_id": "676591be-48bc-4653-995a-c4536e793135"}, {"short_name": "SJ-M10-2", "rental_uris": {"ios": "https://sfo.lft.to/lastmile_qr_scan", "android": "https://sfo.lft.to/lastmile_qr_scan"}, "lon": -121.88566, "lat": 37.335885, "capacity": 23, "name": "San Fernando St at 4th St", "region_id": "5", "station_id": "c52ca98a-70c6-42da-9867-4f35060b5d2e"}, {"short_name": "SJ-Q9", "rental_uris": {"ios": "https://sfo.lft.to/lastmile_qr_scan", "android": "https://sfo.lft.to/lastmile_qr_scan"}, "lon": -121.8831724, "lat": 37.3184498, "capacity": 15, "name": "Willow St at Vine St", "region_id": "5", "station_id": "adda58ee-59a9-4586-8210-da874168a93b"}, {"short_name": "SJ-P9", "rental_uris": {"ios": "https://sfo.lft.to/lastmile_qr_scan", "android": "https://sfo.lft.to/lastmile_qr_scan"}, "lon": -121.88109040260315, "lat": 37.322124625448566, "capacity": 23, "name": "Oak St at 1st St", "region_id": "5", "station_id": "0fd9a51c-67ac-4048-b531-bff644b82f47"}, {"short_name": "SJ-Q5", "rental_uris": {"ios": "https://sfo.lft.to/lastmile_qr_scan", "android": "https://sfo.lft.to/lastmile_qr_scan"}, "lon": -121.89632534980774, "lat": 37.31128394611736, "capacity": 19, "name": "Bird Ave at Willow St", "region_id": "5", "station_id": "4e704be5-b76d-44a5-8d05-a9ba3e5ae20e"}, {"short_name": "SJ-O10", "rental_uris": {"ios": "https://sfo.lft.to/lastmile_qr_scan", "android": "https://sfo.lft.to/lastmile_qr_scan"}, "lon": -121.884559, "lat": 37.327581, "capacity": 27, "name": "Pierce Ave at Market St", "region_id": "5", "station_id": "d6c452d5-88d5-48e2-8028-d46134c2beb8"}, {"short_name": "SJ-J8", "rental_uris": {"ios": "https://sfo.lft.to/lastmile_qr_scan", "android": "https://sfo.lft.to/lastmile_qr_scan"}, "lon": -121.9031829, "lat": 37.3413348, "capacity": 15, "name": "Autumn Parkway at Coleman Ave", "region_id": "5", "station_id": "3ebc4f3f-2941-47cd-a173-83f01a91bf57"}, {"short_name": "SJ-G10", "rental_uris": {"ios": "https://sfo.lft.to/lastmile_qr_scan", "android": "https://sfo.lft.to/lastmile_qr_scan"}, "lon": -121.90443634986876, "lat": 37.355029582252904, "capacity": 18, "name": "1st St at Younger Ave", "region_id": "5", "station_id": "3794a34d-764a-4af1-80db-1b0e0ce13fed"}, {"short_name": "SJ-M8-1", "rental_uris": {"ios": "https://sfo.lft.to/lastmile_qr_scan", "android": "https://sfo.lft.to/lastmile_qr_scan"}, "lon": -121.8932, "lat": 37.331415, "capacity": 23, "name": "Almaden Blvd at San Fernando St", "region_id": "5", "station_id": "32974dc6-2aea-45d3-ae66-06f02f45ecaa"}, {"short_name": "SJ-N10-1", "rental_uris": {"ios": "https://sfo.lft.to/lastmile_qr_scan", "android": "https://sfo.lft.to/lastmile_qr_scan"}, "lon": -121.88385039567946, "lat": 37.33279952386071, "capacity": 19, "name": "4th St at San Carlos St", "region_id": "5", "station_id": "453a6d0d-31ce-4204-b2e1-2f9532e4b356"}, {"short_name": "SJ-J9", "rental_uris": {"ios": "https://sfo.lft.to/lastmile_qr_scan", "android": "https://sfo.lft.to/lastmile_qr_scan"}, "lon": -121.8969655, "lat": 37.3448821, "capacity": 19, "name": "Empire St at 1st St", "region_id": "5", "station_id": "7d8f4de7-d726-4af2-95b5-33032136239a"}, {"short_name": "SJ-N14-2", "rental_uris": {"ios": "https://sfo.lft.to/lastmile_qr_scan", "android": "https://sfo.lft.to/lastmile_qr_scan"}, "lon": -121.86652064323424, "lat": 37.338468014146, "capacity": 15, "name": "19th St at William St", "region_id": "5", "station_id": "ea511b7f-eae4-4ee8-9bba-ee7445e5133a"}, {"short_name": "SJ-H11", "rental_uris": {"ios": "https://sfo.lft.to/lastmile_qr_scan", "android": "https://sfo.lft.to/lastmile_qr_scan"}, "lon": -121.89593575894831, "lat": 37.356834352780886, "capacity": 23, "name": "Raymond Bernal Jr Memorial Park", "region_id": "5", "station_id": "c0f36b61-82e5-4f63-9a28-1fa11f0149c9"}, {"short_name": "SJ-O12", "rental_uris": {"ios": "https://sfo.lft.to/lastmile_qr_scan", "android": "https://sfo.lft.to/lastmile_qr_scan"}, "lon": -121.8759263, "lat": 37.3327938, "capacity": 23, "name": "William St at 10th St", "region_id": "5", "station_id": "753e3e72-9498-4eef-a006-be1848cb36b3"}, {"short_name": "SJ-M10-1", "rental_uris": {"ios": "https://sfo.lft.to/lastmile_qr_scan", "android": "https://sfo.lft.to/lastmile_qr_scan"}, "lon": -121.886995, "lat": 37.337391, "capacity": 23, "name": "San Jose City Hall", "region_id": "5", "station_id": "5c17e1c8-5d21-4309-afcb-e69da27acf31"}, {"short_name": "SJ-N12-1", "rental_uris": {"ios": "https://sfo.lft.to/lastmile_qr_scan", "android": "https://sfo.lft.to/lastmile_qr_scan"}, "lon": -121.8766132, "lat": 37.3364659, "capacity": 19, "name": "San Carlos St at 11th St", "region_id": "5", "station_id": "dc464713-3263-40bd-a059-af2efd7a4b9a"}, {"short_name": "SJ-O9", "rental_uris": {"ios": "https://sfo.lft.to/lastmile_qr_scan", "android": "https://sfo.lft.to/lastmile_qr_scan"}, "lon": -121.88920147407019, "lat": 37.326845739588315, "capacity": 19, "name": "Almaden Blvd at Balbach St", "region_id": "5", "station_id": "8fccc336-6544-4c73-a096-282131267f78"}, {"short_name": "SJ-M6", "rental_uris": {"ios": "https://sfo.lft.to/lastmile_qr_scan", "android": "https://sfo.lft.to/lastmile_qr_scan"}, "lon": -121.90457582473755, "lat": 37.32911866814779, "capacity": 23, "name": "Cahill Park", "region_id": "5", "station_id": "28988488-fb74-4bbc-9e69-613698b2dd8c"}, {"short_name": "SJ-M10-3", "rental_uris": {"ios": "https://sfo.lft.to/lastmile_qr_scan", "android": "https://sfo.lft.to/lastmile_qr_scan"}, "lon": -121.886943, "lat": 37.333798, "capacity": 19, "name": "Paseo De San Antonio at 2nd St", "region_id": "5", "station_id": "891b961d-b674-49be-9579-71f5feb4598d"}, {"short_name": "SJ-N5-2", "rental_uris": {"ios": "https://sfo.lft.to/lastmile_qr_scan", "android": "https://sfo.lft.to/lastmile_qr_scan"}, "lon": -121.90829604864119, "lat": 37.32096853145443, "capacity": 27, "name": "Auzerais Ave at Lincoln Ave", "region_id": "5", "station_id": "14750571-71a2-4c2f-8a6a-8f344866eebe"}, {"short_name": "SJ-L9-2", "rental_uris": {"ios": "https://sfo.lft.to/lastmile_qr_scan", "android": "https://sfo.lft.to/lastmile_qr_scan"}, "lon": -121.89564406871794, "lat": 37.338670604639425, "capacity": 23, "name": "Devine St at San Pedro St", "region_id": "5", "station_id": "d68c980f-e659-4407-8e69-fea3ea84476a"}, {"short_name": "SJ-M5", "rental_uris": {"ios": "https://sfo.lft.to/lastmile_qr_scan", "android": "https://sfo.lft.to/lastmile_qr_scan"}, "lon": -121.91232740879057, "lat": 37.32601084794081, "capacity": 23, "name": "Park Ave at Race St", "region_id": "5", "station_id": "45d77294-6643-4ba4-bd8b-2e8c27430dfe"}, {"short_name": "SJ-K6", "rental_uris": {"ios": "https://sfo.lft.to/lastmile_qr_scan", "android": "https://sfo.lft.to/lastmile_qr_scan"}, "lon": -121.90861791372298, "lat": 37.333677122859896, "capacity": 19, "name": "N Morrison Ave at W Julian St", "region_id": "5", "station_id": "27045384-791c-4519-8087-fce2f7c48a69"}, {"short_name": "SJ-I11", "rental_uris": {"ios": "https://sfo.lft.to/lastmile_qr_scan", "android": "https://sfo.lft.to/lastmile_qr_scan"}, "lon": -121.89193725585936, "lat": 37.35306166133104, "capacity": 23, "name": "Taylor St at 9th St", "region_id": "5", "station_id": "d87d0852-6abb-428b-86dd-d470c64c8ff7"}, {"short_name": "SJ-Q4", "rental_uris": {"ios": "https://sfo.lft.to/lastmile_qr_scan", "android": "https://sfo.lft.to/lastmile_qr_scan"}, "lon": -121.9000107049942, "lat": 37.309014074275915, "capacity": 23, "name": "Willow St at Blewett Ave", "region_id": "5", "station_id": "cf792877-0b6a-4594-b388-8eb06599b549"}, {"short_name": "SJ-J12-2", "rental_uris": {"ios": "https://sfo.lft.to/lastmile_qr_scan", "android": "https://sfo.lft.to/lastmile_qr_scan"}, "lon": -121.88604980707169, "lat": 37.35288682729121, "capacity": 15, "name": "Backesto Park", "region_id": "5", "station_id": "534d8e3d-3814-48c9-b25e-1d2b8205fcd9"}, {"short_name": "SJ-E10", "rental_uris": {"ios": "https://sfo.lft.to/lastmile_qr_scan", "android": "https://sfo.lft.to/lastmile_qr_scan"}, "lon": -121.90931528806688, "lat": 37.36186680025918, "capacity": 23, "name": "Gish Rd at 1st St", "region_id": "5", "station_id": "b8cadddb-5ca8-43ec-98f3-2276e036950b"}, {"short_name": "SJ-E9", "rental_uris": {"ios": "https://sfo.lft.to/lastmile_qr_scan", "android": "https://sfo.lft.to/lastmile_qr_scan"}, "lon": -121.9117319583893, "lat": 37.364060462258806, "capacity": 15, "name": "Sonora Ave at 1st St", "region_id": "5", "station_id": "cfda2dee-2f6c-400d-a1a7-ba1b2bdc6aee"}, {"short_name": "SJ-P7", "rental_uris": {"ios": "https://sfo.lft.to/lastmile_qr_scan", "android": "https://sfo.lft.to/lastmile_qr_scan"}, "lon": -121.89322043713115, "lat": 37.31998798619738, "capacity": 19, "name": "Delmas Ave at Virginia St", "region_id": "5", "station_id": "ea2a009b-6a83-4b81-ba35-c175c492f4f4"}, {"short_name": "SJ-P10", "rental_uris": {"ios": "https://sfo.lft.to/lastmile_qr_scan", "android": "https://sfo.lft.to/lastmile_qr_scan"}, "lon": -121.87712, "lat": 37.3259984, "capacity": 27, "name": "5th St at Virginia St", "region_id": "5", "station_id": "bb54f5c8-5578-4167-9599-8e55154de4fd"}, {"short_name": "SJ-N14", "rental_uris": {"ios": "https://sfo.lft.to/lastmile_qr_scan", "android": "https://sfo.lft.to/lastmile_qr_scan"}, "lon": -121.8636494, "lat": 37.3398531, "capacity": 15, "name": "22nd St at William St", "region_id": "5", "station_id": "59a78eb1-a501-4145-b21f-bc2397898905"}, {"short_name": "SJ-N10-2", "rental_uris": {"ios": "https://sfo.lft.to/lastmile_qr_scan", "android": "https://sfo.lft.to/lastmile_qr_scan"}, "lon": -121.88693761825562, "lat": 37.33116799422201, "capacity": 19, "name": "1st St at San Carlos St", "region_id": "5", "station_id": "c11e189e-080a-40ba-a0a4-98920af4806b"}, {"short_name": "SJ-K5", "rental_uris": {"ios": "https://sfo.lft.to/lastmile_qr_scan", "android": "https://sfo.lft.to/lastmile_qr_scan"}, "lon": -121.9125165, "lat": 37.3322326, "capacity": 23, "name": "Julian St at The Alameda", "region_id": "5", "station_id": "2c7560e6-62c6-4403-8b97-8016471948b5"}, {"short_name": "SJ-M11-3", "rental_uris": {"ios": "https://sfo.lft.to/lastmile_qr_scan", "android": "https://sfo.lft.to/lastmile_qr_scan"}, "lon": -121.8807965, "lat": 37.3383952, "capacity": 19, "name": "9th St at San Fernando St", "region_id": "5", "station_id": "7dfd8e07-81a8-4734-bc70-5e47aadbfa5a"}, {"short_name": "SJ-K9", "rental_uris": {"ios": "https://sfo.lft.to/lastmile_qr_scan", "android": "https://sfo.lft.to/lastmile_qr_scan"}, "lon": -121.895617, "lat": 37.342725, "capacity": 23, "name": "Ryland Park", "region_id": "5", "station_id": "13d36dad-f238-426c-9525-ec73552fa0b0"}, {"short_name": "SJ-Q8", "rental_uris": {"ios": "https://sfo.lft.to/lastmile_qr_scan", "android": "https://sfo.lft.to/lastmile_qr_scan"}, "lon": -121.884995, "lat": 37.3172979, "capacity": 19, "name": "Palm St at Willow St", "region_id": "5", "station_id": "0cf3890c-4fde-49f7-9daa-7f2842695119"}, {"short_name": "SJ-J10", "rental_uris": {"ios": "https://sfo.lft.to/lastmile_qr_scan", "android": "https://sfo.lft.to/lastmile_qr_scan"}, "lon": -121.89479783177376, "lat": 37.3487586867448, "capacity": 26, "name": "Jackson St at 5th St", "region_id": "5", "station_id": "d6422284-e433-48c5-bf00-751c299189c8"}, {"short_name": "SJ-N9", "rental_uris": {"ios": "https://sfo.lft.to/lastmile_qr_scan", "android": "https://sfo.lft.to/lastmile_qr_scan"}, "lon": -121.888979, "lat": 37.330698, "capacity": 15, "name": "San Carlos St at Market St", "region_id": "5", "station_id": "caadcda3-bbdb-4cc5-825a-7e3d79ea921e"}, {"short_name": "SJ-H16", "rental_uris": {"ios": "https://sfo.lft.to/lastmile_qr_scan", "android": "https://sfo.lft.to/lastmile_qr_scan"}, "lon": -121.87161205351002, "lat": 37.36508806048156, "capacity": 25, "name": "Lenfest Rd at Mabury Rd", "region_id": "5", "station_id": "93d95ded-d49e-43bc-b7fe-6ce556569088"}, {"short_name": "SJ-N10-3", "rental_uris": {"ios": "https://sfo.lft.to/lastmile_qr_scan", "android": "https://sfo.lft.to/lastmile_qr_scan"}, "lon": -121.8817663192749, "lat": 37.33203868095132, "capacity": 19, "name": "5th St at San Salvador St", "region_id": "5", "station_id": "bd217291-f4ad-4e1d-8c13-e27d39a35fef"}, {"short_name": "SJ-O4", "rental_uris": {"ios": "https://sfo.lft.to/lastmile_qr_scan", "android": "https://sfo.lft.to/lastmile_qr_scan"}, "lon": -121.91000461578369, "lat": 37.316736478493425, "capacity": 27, "name": "Parkmoor Ave at Race St", "region_id": "5", "station_id": "2c00d99d-7518-4ecd-ab53-63e7a34034f6"}, {"short_name": "SJ-H16-2", "rental_uris": {"ios": "https://sfo.lft.to/lastmile_qr_scan", "android": "https://sfo.lft.to/lastmile_qr_scan"}, "lon": -121.87391658002635, "lat": 37.367203965330354, "capacity": 11, "name": "Berryessa BART", "region_id": "5", "station_id": "2136670018923932496"}, {"short_name": "SJ-N6", "rental_uris": {"ios": "https://sfo.lft.to/lastmile_qr_scan", "android": "https://sfo.lft.to/lastmile_qr_scan"}, "lon": -121.9030898809433, "lat": 37.321181834267314, "capacity": 23, "name": "Auzerais Ave at Los Gatos Creek Trail", "region_id": "5", "station_id": "46f36a3a-f550-4fe0-bfe8-b94fddaf95d8"}, {"short_name": "SJ-L12", "rental_uris": {"ios": "https://sfo.lft.to/lastmile_qr_scan", "android": "https://sfo.lft.to/lastmile_qr_scan"}, "lon": -121.87729239463806, "lat": 37.3426625921454, "capacity": 23, "name": "N 14th St at E Santa Clara St", "region_id": "5", "station_id": "b6d76c7a-2082-430b-8403-da5db00becaf"}, {"short_name": "SJ-K10", "rental_uris": {"ios": "https://sfo.lft.to/lastmile_qr_scan", "android": "https://sfo.lft.to/lastmile_qr_scan"}, "lon": -121.89284384250641, "lat": 37.34113203547954, "capacity": 23, "name": "2nd St at Julian St", "region_id": "5", "station_id": "ccf416f8-ccc0-4f82-a659-e5d7851d2bcb"}, {"short_name": "SJ-N5", "rental_uris": {"ios": "https://sfo.lft.to/lastmile_qr_scan", "android": "https://sfo.lft.to/lastmile_qr_scan"}, "lon": -121.90597593784332, "lat": 37.32345133870681, "capacity": 27, "name": "Sunol St at San Carlos St", "region_id": "5", "station_id": "e5b1f228-5347-47fc-a079-c1df0e8668f1"}, {"short_name": "SJ-N7", "rental_uris": {"ios": "https://sfo.lft.to/lastmile_qr_scan", "android": "https://sfo.lft.to/lastmile_qr_scan"}, "lon": -121.89971968531609, "lat": 37.324125951150876, "capacity": 23, "name": "Columbia Ave at Bird Ave", "region_id": "5", "station_id": "eb283c26-5d6b-4da4-a2ac-f0bfe3329856"}, {"short_name": "SJ-R11", "rental_uris": {"ios": "https://sfo.lft.to/lastmile_qr_scan", "android": "https://sfo.lft.to/lastmile_qr_scan"}, "lon": -121.87009871006012, "lat": 37.32031582108647, "capacity": 31, "name": "South San Jose State", "region_id": "5", "station_id": "94c877d2-f064-4373-b372-3f8997a07f30"}, {"short_name": "SJ-H12", "rental_uris": {"ios": "https://sfo.lft.to/lastmile_qr_scan", "android": "https://sfo.lft.to/lastmile_qr_scan"}, "lon": -121.89225107431412, "lat": 37.355692651246365, "capacity": 23, "name": "10th St at Mission St", "region_id": "5", "station_id": "6200707a-ffec-4dde-b142-4df69780264f"}, {"short_name": "SJ-P6", "rental_uris": {"ios": "https://sfo.lft.to/lastmile_qr_scan", "android": "https://sfo.lft.to/lastmile_qr_scan"}, "lon": -121.89783275127412, "lat": 37.31515792998312, "capacity": 15, "name": "Bird Ave at Coe Ave", "region_id": "5", "station_id": "b09fd293-4364-4ce6-9341-0ced58486c5a"}, {"short_name": "SJ-I9", "rental_uris": {"ios": "https://sfo.lft.to/lastmile_qr_scan", "android": "https://sfo.lft.to/lastmile_qr_scan"}, "lon": -121.89966201782227, "lat": 37.34759257443888, "capacity": 19, "name": "George St at 1st St", "region_id": "5", "station_id": "6c176d42-fea5-4df1-80eb-66a99cc73a21"}, {"short_name": "SJ-J12-1", "rental_uris": {"ios": "https://sfo.lft.to/lastmile_qr_scan", "android": "https://sfo.lft.to/lastmile_qr_scan"}, "lon": -121.8876188993454, "lat": 37.349426308788004, "capacity": 23, "name": "10th St at Empire St", "region_id": "5", "station_id": "7c086aa7-c33f-47e5-ace9-74c40807c409"}, {"short_name": "SF-J1", "rental_uris": {"ios": "https://sfo.lft.to/lastmile_qr_scan", "android": "https://sfo.lft.to/lastmile_qr_scan"}, "lon": -122.509071, "lat": 37.772954, "capacity": 22, "name": "48th Ave at Cabrillo St", "region_id": "3", "station_id": "874736bb-35c8-48e8-a4d7-e8e811d418da"}, {"short_name": "SF-T21", "rental_uris": {"ios": "https://sfo.lft.to/lastmile_qr_scan", "android": "https://sfo.lft.to/lastmile_qr_scan"}, "lon": -122.4231805, "lat": 37.7423139, "capacity": 15, "name": "30th St at San Jose Ave", "region_id": "3", "station_id": "c7879d87-34c8-4b23-9c07-250fb012bd4b"}, {"short_name": "SF-J12", "rental_uris": {"ios": "https://sfo.lft.to/lastmile_qr_scan", "android": "https://sfo.lft.to/lastmile_qr_scan"}, "lon": -122.464998, "lat": 37.7751205, "capacity": 23, "name": "7th Ave at Cabrillo St", "region_id": "3", "station_id": "2815280a-8263-4537-a944-4fdc32774fde"}, {"short_name": "SF-M30", "rental_uris": {"ios": "https://sfo.lft.to/lastmile_qr_scan", "android": "https://sfo.lft.to/lastmile_qr_scan"}, "lon": -122.39083349704742, "lat": 37.76704457969368, "capacity": 35, "name": "4th St at 16th St", "region_id": "3", "station_id": "482f48f4-7ed6-4e69-a778-a2aba0f39c80"}, {"short_name": "OK-D3-1", "rental_uris": {"ios": "https://sfo.lft.to/lastmile_qr_scan", "android": "https://sfo.lft.to/lastmile_qr_scan"}, "lon": -122.2644881, "lat": 37.8403643, "capacity": 15, "name": "Shattuck Ave at 55th St", "region_id": "12", "station_id": "cd4b4099-e2f5-4d46-bc1f-ed96d22548cc"}, {"short_name": "SF-J25", "rental_uris": {"ios": "https://sfo.lft.to/lastmile_qr_scan", "android": "https://sfo.lft.to/lastmile_qr_scan"}, "lon": -122.4113061, "lat": 37.7765126, "capacity": 27, "name": "Howard St at 8th St", "region_id": "3", "station_id": "6156f831-ca96-459d-aafe-685420751e4d"}, {"short_name": "SF-Q3", "rental_uris": {"ios": "https://sfo.lft.to/lastmile_qr_scan", "android": "https://sfo.lft.to/lastmile_qr_scan"}, "lon": -122.49855753927035, "lat": 37.751471937685125, "capacity": 23, "name": "Ortega St at 40th Ave", "region_id": "3", "station_id": "1784516117206143850"}, {"short_name": "SF-F28-1", "rental_uris": {"ios": "https://sfo.lft.to/lastmile_qr_scan", "android": "https://sfo.lft.to/lastmile_qr_scan"}, "lon": -122.399051, "lat": 37.7913, "capacity": 31, "name": "Mechanics Monument Plaza", "region_id": "3", "station_id": "cf56994c-cdd6-4586-9f56-eea2f51e81ae"}, {"short_name": "SF-T20", "rental_uris": {"ios": "https://sfo.lft.to/lastmile_qr_scan", "android": "https://sfo.lft.to/lastmile_qr_scan"}, "lon": -122.4268059, "lat": 37.7436839, "capacity": 15, "name": "29th St at Church St", "region_id": "3", "station_id": "0fc2ae3f-b5ac-493b-bd93-8300b601f9db"}, {"short_name": "OK-I8", "rental_uris": {"ios": "https://sfo.lft.to/lastmile_qr_scan", "android": "https://sfo.lft.to/lastmile_qr_scan"}, "lon": -122.25646018981932, "lat": 37.80889393398715, "capacity": 23, "name": "Grand Ave at Perkins St", "region_id": "12", "station_id": "d5eedd49-f998-4b8a-9d1a-22853da216aa"}, {"short_name": "SF-M9-2", "rental_uris": {"ios": "https://sfo.lft.to/lastmile_qr_scan", "android": "https://sfo.lft.to/lastmile_qr_scan"}, "lon": -122.4753742486682, "lat": 37.763721184118076, "capacity": 27, "name": "Irving St at 17th Ave", "region_id": "3", "station_id": "1779272240211880856"}, {"short_name": "SF-H15", "rental_uris": {"ios": "https://sfo.lft.to/lastmile_qr_scan", "android": "https://sfo.lft.to/lastmile_qr_scan"}, "lon": -122.450012, "lat": 37.78068, "capacity": 29, "name": "Anza St at Collins St", "region_id": "3", "station_id": "8971b4a0-9868-422f-904c-d4c180fc34ae"}, {"short_name": "SF-Q26", "rental_uris": {"ios": "https://sfo.lft.to/lastmile_qr_scan", "android": "https://sfo.lft.to/lastmile_qr_scan"}, "lon": -122.40403879371094, "lat": 37.75452190090258, "capacity": 15, "name": "23rd St at San Bruno Ave", "region_id": "3", "station_id": "9cac67a2-9219-455e-b3db-c771311c5b33"}, {"short_name": "OK-K14", "rental_uris": {"ios": "https://sfo.lft.to/lastmile_qr_scan", "android": "https://sfo.lft.to/lastmile_qr_scan"}, "lon": -122.2315811650537, "lat": 37.78856066343691, "capacity": 23, "name": "E 21st St at 23rd Ave", "region_id": "12", "station_id": "2137007208819178192"}, {"short_name": "OK-K2", "rental_uris": {"ios": "https://sfo.lft.to/lastmile_qr_scan", "android": "https://sfo.lft.to/lastmile_qr_scan"}, "lon": -122.2851712, "lat": 37.8123315, "capacity": 15, "name": "DeFremery Park", "region_id": "12", "station_id": "1af8f901-8697-4128-b6c8-45c7c7f2c684"}, {"short_name": "SF-AA8", "rental_uris": {"ios": "https://sfo.lft.to/lastmile_qr_scan", "android": "https://sfo.lft.to/lastmile_qr_scan"}, "lon": -122.47431779005021, "lat": 37.71768610064344, "capacity": 19, "name": "Cambon Dr at Castelo Ave", "region_id": "3", "station_id": "1939935353415397414"}, {"short_name": "SF-N29", "rental_uris": {"ios": "https://sfo.lft.to/lastmile_qr_scan", "android": "https://sfo.lft.to/lastmile_qr_scan"}, "lon": -122.3947595, "lat": 37.764794, "capacity": 31, "name": "Mississippi St at 17th St", "region_id": "3", "station_id": "9a97cfb1-8882-4dfc-a075-2c22d646e457"}, {"short_name": "SF-K18", "rental_uris": {"ios": "https://sfo.lft.to/lastmile_qr_scan", "android": "https://sfo.lft.to/lastmile_qr_scan"}, "lon": -122.4390777, "lat": 37.7730627, "capacity": 27, "name": "Broderick St at Oak St", "region_id": "3", "station_id": "b1a957d2-5e0e-4a99-bca3-7f3db21d30eb"}, {"short_name": "BK-F7", "rental_uris": {"ios": "https://sfo.lft.to/lastmile_qr_scan", "android": "https://sfo.lft.to/lastmile_qr_scan"}, "lon": -122.2693844139576, "lat": 37.86012459911685, "capacity": 23, "name": "Milvia St at Derby St", "region_id": "14", "station_id": "713e3a3a-c5a6-4f48-a122-c536326bc954"}, {"short_name": "SF-Y14", "rental_uris": {"ios": "https://sfo.lft.to/lastmile_qr_scan", "android": "https://sfo.lft.to/lastmile_qr_scan"}, "lon": -122.45228647426156, "lat": 37.72547719176656, "capacity": 27, "name": "Frida Kahlo Way at Cloud Cir", "region_id": "3", "station_id": "47894de7-32c7-48ac-aa44-57c8def8a7f3"}, {"short_name": "SF-C25-2", "rental_uris": {"ios": "https://sfo.lft.to/lastmile_qr_scan", "android": "https://sfo.lft.to/lastmile_qr_scan"}, "lon": -122.41068881253082, "lat": 37.79914436024966, "capacity": 19, "name": "Powell St at Green St", "region_id": "3", "station_id": "2088720185650487364"}, {"short_name": "BK-E3", "rental_uris": {"ios": "https://sfo.lft.to/lastmile_qr_scan", "android": "https://sfo.lft.to/lastmile_qr_scan"}, "lon": -122.2902952903697, "lat": 37.86281710670802, "capacity": 23, "name": "Channing Way at San Pablo Ave", "region_id": "14", "station_id": "40205ede-0c43-44ab-8c9c-0d8ecd9f854e"}, {"short_name": "SF-J17", "rental_uris": {"ios": "https://sfo.lft.to/lastmile_qr_scan", "android": "https://sfo.lft.to/lastmile_qr_scan"}, "lon": -122.4419523104363, "lat": 37.77738752500588, "capacity": 27, "name": "McAllister St at Baker St", "region_id": "3", "station_id": "73fccaab-205c-4b1e-a547-5fb0f2a58056"}, {"short_name": "DC-04", "rental_uris": {"ios": "https://sfo.lft.to/lastmile_qr_scan", "android": "https://sfo.lft.to/lastmile_qr_scan"}, "lon": -122.46239250112515, "lat": 37.705224075649866, "capacity": 8, "name": "Mission St at John Daly Blvd", "station_id": "2127330139488909690"}, {"short_name": "SF-G6-1", "rental_uris": {"ios": "https://sfo.lft.to/lastmile_qr_scan", "android": "https://sfo.lft.to/lastmile_qr_scan"}, "lon": -122.48602866997177, "lat": 37.78175809088735, "capacity": 16, "name": "26th Ave at Clement St", "region_id": "3", "station_id": "1859006602356631814"}, {"short_name": "SF-K15-2", "rental_uris": {"ios": "https://sfo.lft.to/lastmile_qr_scan", "android": "https://sfo.lft.to/lastmile_qr_scan"}, "lon": -122.44890733174485, "lat": 37.77256103441637, "capacity": 27, "name": "Fell St at Clayton St", "region_id": "3", "station_id": "1903579136030360500"}, {"short_name": "SF-G28-2", "rental_uris": {"ios": "https://sfo.lft.to/lastmile_qr_scan", "android": "https://sfo.lft.to/lastmile_qr_scan"}, "lon": -122.39974901175223, "lat": 37.78571119302914, "capacity": 19, "name": "Howard St at Hawthorne St", "region_id": "3", "station_id": "2a229da1-a8bc-485a-982b-df0c9de6d11e"}, {"short_name": "BK-H8", "rental_uris": {"ios": "https://sfo.lft.to/lastmile_qr_scan", "android": "https://sfo.lft.to/lastmile_qr_scan"}, "lon": -122.26356536149979, "lat": 37.855573661828785, "capacity": 19, "name": "Fulton St at Ashby Ave", "region_id": "14", "station_id": "4d1990b2-f487-43be-b436-018ad73ab0dd"}, {"short_name": "BK-C1", "rental_uris": {"ios": "https://sfo.lft.to/lastmile_qr_scan", "android": "https://sfo.lft.to/lastmile_qr_scan"}, "lon": -122.29967594146727, "lat": 37.870407115465376, "capacity": 15, "name": "Fifth St at Delaware St", "region_id": "14", "station_id": "08f875e7-d696-4a4d-9656-43f07a953de4"}, {"short_name": "OK-L19", "rental_uris": {"ios": "https://sfo.lft.to/lastmile_qr_scan", "android": "https://sfo.lft.to/lastmile_qr_scan"}, "lon": -122.21239820122717, "lat": 37.774152564302355, "capacity": 19, "name": "Bond St at High St", "region_id": "12", "station_id": "0d6a9101-5b40-4fdf-9315-e494af1baf7b"}, {"short_name": "BK-E8", "rental_uris": {"ios": "https://sfo.lft.to/lastmile_qr_scan", "android": "https://sfo.lft.to/lastmile_qr_scan"}, "lon": -122.26593686946156, "lat": 37.868135281599706, "capacity": 23, "name": "Fulton St at Bancroft Way", "region_id": "14", "station_id": "a4176220-2f51-47dd-82c4-342dc97867bd"}, {"short_name": "SF-D8", "rental_uris": {"ios": "https://sfo.lft.to/lastmile_qr_scan", "android": "https://sfo.lft.to/lastmile_qr_scan"}, "lon": -122.48120889210267, "lat": 37.79206724210018, "capacity": 18, "name": "Lincoln Blvd at Bowley St", "region_id": "3", "station_id": "2092453326128186042"}, {"short_name": "SF-G8-1", "rental_uris": {"ios": "https://sfo.lft.to/lastmile_qr_scan", "android": "https://sfo.lft.to/lastmile_qr_scan"}, "lon": -122.47798977442686, "lat": 37.77855734730058, "capacity": 19, "name": "Anza St at 19th Ave", "region_id": "3", "station_id": "1858693616015893032"}, {"short_name": "BK-B7", "rental_uris": {"ios": "https://sfo.lft.to/lastmile_qr_scan", "android": "https://sfo.lft.to/lastmile_qr_scan"}, "lon": -122.26952791213989, "lat": 37.876572549106854, "capacity": 23, "name": "Virginia St at Shattuck Ave", "region_id": "14", "station_id": "5d2b4506-3169-4f9a-af15-31c78768917a"}, {"short_name": "SF-U30", "rental_uris": {"ios": "https://sfo.lft.to/lastmile_qr_scan", "android": "https://sfo.lft.to/lastmile_qr_scan"}, "lon": -122.38660231232642, "lat": 37.742075235944235, "capacity": 19, "name": "Evans Ave at Newhall St", "region_id": "3", "station_id": "1a7a0757-fbbb-497e-b92b-cb0817cab274"}, {"short_name": "BK-H9", "rental_uris": {"ios": "https://sfo.lft.to/lastmile_qr_scan", "android": "https://sfo.lft.to/lastmile_qr_scan"}, "lon": -122.2597949, "lat": 37.8559558, "capacity": 19, "name": "Telegraph Ave at Ashby Ave", "region_id": "14", "station_id": "f630e61e-56b0-4f69-a91b-2e85b44dfcb7"}, {"short_name": "SF-J29-3", "rental_uris": {"ios": "https://sfo.lft.to/lastmile_qr_scan", "android": "https://sfo.lft.to/lastmile_qr_scan"}, "lon": -122.394495, "lat": 37.7763115, "capacity": 18, "name": "San Francisco Caltrain Station - King St", "region_id": "3", "station_id": "a7da1857-747a-4507-9d8f-2a9f95f0babf"}, {"short_name": "SF-M4", "rental_uris": {"ios": "https://sfo.lft.to/lastmile_qr_scan", "android": "https://sfo.lft.to/lastmile_qr_scan"}, "lon": -122.4953893, "lat": 37.7628993, "capacity": 23, "name": "36th Ave at Irving St", "region_id": "3", "station_id": "1774489540781376334"}, {"short_name": "OK-G5", "rental_uris": {"ios": "https://sfo.lft.to/lastmile_qr_scan", "android": "https://sfo.lft.to/lastmile_qr_scan"}, "lon": -122.26043654610294, "lat": 37.824892529951114, "capacity": 31, "name": "Mosswood Park", "region_id": "12", "station_id": "4298a24b-394a-491d-9d8f-df90f381b187"}, {"short_name": "SF-B24-1", "rental_uris": {"ios": "https://sfo.lft.to/lastmile_qr_scan", "android": "https://sfo.lft.to/lastmile_qr_scan"}, "lon": -122.41489757374517, "lat": 37.80330737378947, "capacity": 27, "name": "Taylor St at Columbus Ave", "region_id": "3", "station_id": "1814898016477358476"}, {"short_name": "OK-J6-2", "rental_uris": {"ios": "https://sfo.lft.to/lastmile_qr_scan", "android": "https://sfo.lft.to/lastmile_qr_scan"}, "lon": -122.26449608802795, "lat": 37.80781318217903, "capacity": 31, "name": "Snow Park", "region_id": "12", "station_id": "5fdc3d6d-e9c8-47cf-874e-d2f012cfb217"}, {"short_name": "SF-U21", "rental_uris": {"ios": "https://sfo.lft.to/lastmile_qr_scan", "android": "https://sfo.lft.to/lastmile_qr_scan"}, "lon": -122.42574964326917, "lat": 37.73983296948461, "capacity": 17, "name": "Randall St at Chenery St", "region_id": "3", "station_id": "1bd76a29-5890-4194-993c-666c09af9993"}, {"short_name": "OK-AA3", "rental_uris": {"ios": "https://sfo.lft.to/lastmile_qr_scan", "android": "https://sfo.lft.to/lastmile_qr_scan"}, "lon": -122.2851545595561, "lat": 37.84814590831065, "capacity": 19, "name": "65th St at San Pablo Ave", "region_id": "12", "station_id": "2115870347392068466"}, {"short_name": "OK-C2", "rental_uris": {"ios": "https://sfo.lft.to/lastmile_qr_scan", "android": "https://sfo.lft.to/lastmile_qr_scan"}, "lon": -122.267738, "lat": 37.8426295, "capacity": 15, "name": "Dover St at 57th St", "region_id": "12", "station_id": "9cb2f8b5-0d32-4a15-a4f1-3990595156de"}, {"short_name": "SF-Q30", "rental_uris": {"ios": "https://sfo.lft.to/lastmile_qr_scan", "android": "https://sfo.lft.to/lastmile_qr_scan"}, "lon": -122.38879501819609, "lat": 37.755367132158526, "capacity": 31, "name": "23rd St at Tennessee St", "region_id": "3", "station_id": "194a64ab-b6b4-4724-bd21-01b4e9cbe629"}, {"short_name": "SF-N24-2", "rental_uris": {"ios": "https://sfo.lft.to/lastmile_qr_scan", "android": "https://sfo.lft.to/lastmile_qr_scan"}, "lon": -122.4130036, "lat": 37.7638471, "capacity": 19, "name": "Harrison St at 17th St", "region_id": "3", "station_id": "4d2b40cb-88e2-4371-8532-b1e52e797c8c"}, {"short_name": "SF-L27", "rental_uris": {"ios": "https://sfo.lft.to/lastmile_qr_scan", "android": "https://sfo.lft.to/lastmile_qr_scan"}, "lon": -122.402717, "lat": 37.771058, "capacity": 27, "name": "Townsend St at 7th St", "region_id": "3", "station_id": "e4e5d6b1-a335-41a9-8efe-4c4d9294d6e2"}, {"short_name": "DC-07", "rental_uris": {"ios": "https://sfo.lft.to/lastmile_qr_scan", "android": "https://sfo.lft.to/lastmile_qr_scan"}, "lon": -122.46513118543349, "lat": 37.69951422024016, "capacity": 8, "name": "Westlake Ave at Miriam St", "station_id": "2127330633410148738"}, {"short_name": "SF-G28-1", "rental_uris": {"ios": "https://sfo.lft.to/lastmile_qr_scan", "android": "https://sfo.lft.to/lastmile_qr_scan"}, "lon": -122.39871607983103, "lat": 37.78646613354221, "capacity": 18, "name": "Howard St at 2nd St", "region_id": "3", "station_id": "d79ae08e-a8d2-4aad-9f98-9b20afb8f6e0"}, {"short_name": "SF-R24", "rental_uris": {"ios": "https://sfo.lft.to/lastmile_qr_scan", "android": "https://sfo.lft.to/lastmile_qr_scan"}, "lon": -122.4120835, "lat": 37.750945, "capacity": 23, "name": "Garfield Square", "region_id": "3", "station_id": "1d0da57a-5fe4-48af-b66b-5f380706eb4e"}, {"short_name": "SF-M8", "rental_uris": {"ios": "https://sfo.lft.to/lastmile_qr_scan", "android": "https://sfo.lft.to/lastmile_qr_scan"}, "lon": -122.47949242628238, "lat": 37.76352708498452, "capacity": 19, "name": "Irving St at 21st Ave", "region_id": "3", "station_id": "36ecea1d-48aa-416b-96d3-7698658759e5"}, {"short_name": "SF-Y25", "rental_uris": {"ios": "https://sfo.lft.to/lastmile_qr_scan", "android": "https://sfo.lft.to/lastmile_qr_scan"}, "lon": -122.40659952163695, "lat": 37.72694296622841, "capacity": 23, "name": "Goettingen St at Bacon St", "region_id": "3", "station_id": "c0bc3212-1e26-438b-9ebd-ea1d1c8e92ef"}, {"short_name": "SF-G17", "rental_uris": {"ios": "https://sfo.lft.to/lastmile_qr_scan", "android": "https://sfo.lft.to/lastmile_qr_scan"}, "lon": -122.442878, "lat": 37.783973, "capacity": 27, "name": "Post St at Baker St", "region_id": "3", "station_id": "71944da6-f667-4ca6-ace6-70765d46a529"}, {"short_name": "SF-F24", "rental_uris": {"ios": "https://sfo.lft.to/lastmile_qr_scan", "android": "https://sfo.lft.to/lastmile_qr_scan"}, "lon": -122.41517064379924, "lat": 37.78942643725219, "capacity": 19, "name": "Bush St at Leavenworth St", "region_id": "3", "station_id": "2088720413948029938"}, {"short_name": "SF-K15-", "rental_uris": {"ios": "https://sfo.lft.to/lastmile_qr_scan", "android": "https://sfo.lft.to/lastmile_qr_scan"}, "lon": -122.4537048, "lat": 37.7719511, "capacity": 19, "name": "Fell St at Stanyan St", "region_id": "3", "station_id": "180e4d99-3717-4b99-8200-671af652921f"}, {"short_name": "SF-I30-2", "rental_uris": {"ios": "https://sfo.lft.to/lastmile_qr_scan", "android": "https://sfo.lft.to/lastmile_qr_scan"}, "lon": -122.3914651, "lat": 37.7822586, "capacity": 35, "name": "Brannan St at Colin P Kelly Jr St", "region_id": "3", "station_id": "4c98bff8-3bd8-480e-ac8f-25fa4b09f84e"}, {"short_name": "SF-F28-5", "rental_uris": {"ios": "https://sfo.lft.to/lastmile_qr_scan", "android": "https://sfo.lft.to/lastmile_qr_scan"}, "lon": -122.40199392970875, "lat": 37.790044438426044, "capacity": 35, "name": "Sutter St at Montgomery St", "region_id": "3", "station_id": "2b935f1b-2659-4d82-a348-6a3bb083914d"}, {"short_name": "SF-H12", "rental_uris": {"ios": "https://sfo.lft.to/lastmile_qr_scan", "android": "https://sfo.lft.to/lastmile_qr_scan"}, "lon": -122.46314182877539, "lat": 37.77948760924334, "capacity": 21, "name": "5th Ave at Anza St", "region_id": "3", "station_id": "9b4f6ef0-4568-4f52-8226-ec8432b75802"}, {"short_name": "OK-B5", "rental_uris": {"ios": "https://sfo.lft.to/lastmile_qr_scan", "android": "https://sfo.lft.to/lastmile_qr_scan"}, "lon": -122.2515349, "lat": 37.8417999, "capacity": 15, "name": "College Ave at Taft Ave", "region_id": "12", "station_id": "5f13426c-73f2-4272-a498-f11ff007e8d3"}, {"short_name": "OK-E4", "rental_uris": {"ios": "https://sfo.lft.to/lastmile_qr_scan", "android": "https://sfo.lft.to/lastmile_qr_scan"}, "lon": -122.263693665756, "lat": 37.833538871616035, "capacity": 19, "name": "Shattuck Ave at Telegraph Ave", "region_id": "12", "station_id": "c3f56bed-65e3-425b-999e-82b3a4f73aeb"}, {"short_name": "SF-J24", "rental_uris": {"ios": "https://sfo.lft.to/lastmile_qr_scan", "android": "https://sfo.lft.to/lastmile_qr_scan"}, "lon": -122.4094493687153, "lat": 37.77452040113685, "capacity": 31, "name": "8th St at Ringold St", "region_id": "3", "station_id": "1822622c-b9e0-43fe-8bf9-9f26024aa426"}, {"short_name": "SF-B19", "rental_uris": {"ios": "https://sfo.lft.to/lastmile_qr_scan", "android": "https://sfo.lft.to/lastmile_qr_scan"}, "lon": -122.4360635, "lat": 37.8026635, "capacity": 27, "name": "Bay St at Fillmore St", "region_id": "3", "station_id": "43974bf5-147b-4348-aed6-eb29626cb1cf"}, {"short_name": "SF-J26", "rental_uris": {"ios": "https://sfo.lft.to/lastmile_qr_scan", "android": "https://sfo.lft.to/lastmile_qr_scan"}, "lon": -122.40630118403759, "lat": 37.77769630108636, "capacity": 15, "name": "Victoria Manalo Draves Park", "region_id": "3", "station_id": "03eb8b17-d20f-400c-a98a-dcbc947228af"}, {"short_name": "SF-L21", "rental_uris": {"ios": "https://sfo.lft.to/lastmile_qr_scan", "android": "https://sfo.lft.to/lastmile_qr_scan"}, "lon": -122.4269645, "lat": 37.769244, "capacity": 19, "name": "Market St at Dolores St", "region_id": "3", "station_id": "930fe54f-5572-4900-8910-6041386560bf"}, {"short_name": "SF-G23", "rental_uris": {"ios": "https://sfo.lft.to/lastmile_qr_scan", "android": "https://sfo.lft.to/lastmile_qr_scan"}, "lon": -122.419342, "lat": 37.785479, "capacity": 27, "name": "Myrtle St at Polk St", "region_id": "3", "station_id": "3612155a-0fb2-4e66-8bab-f81979bfe54a"}, {"short_name": "BK-G7", "rental_uris": {"ios": "https://sfo.lft.to/lastmile_qr_scan", "android": "https://sfo.lft.to/lastmile_qr_scan"}, "lon": -122.2675583, "lat": 37.8575672, "capacity": 20, "name": "Oregon St at Adeline St", "region_id": "14", "station_id": "ef04d469-63f4-464a-946f-056da6318051"}, {"short_name": "SF-B25", "rental_uris": {"ios": "https://sfo.lft.to/lastmile_qr_scan", "android": "https://sfo.lft.to/lastmile_qr_scan"}, "lon": -122.4132756, "lat": 37.8027671, "capacity": 19, "name": "Lombard St at Columbus Ave", "region_id": "3", "station_id": "7b2083d3-b1bb-4ef3-ba53-bebc831bd0a4"}, {"short_name": "SF-H16", "rental_uris": {"ios": "https://sfo.lft.to/lastmile_qr_scan", "android": "https://sfo.lft.to/lastmile_qr_scan"}, "lon": -122.44737446308135, "lat": 37.781130551698666, "capacity": 26, "name": "O'Farrell St at Masonic Ave", "region_id": "3", "station_id": "1e5323d3-5bd3-4259-a9d4-aec0e09d8f56"}, {"short_name": "SF-T11", "rental_uris": {"ios": "https://sfo.lft.to/lastmile_qr_scan", "android": "https://sfo.lft.to/lastmile_qr_scan"}, "lon": -122.46569897816308, "lat": 37.740984408782154, "capacity": 16, "name": "West Portal MUNI", "region_id": "3", "station_id": "2114365359206953814"}, {"short_name": "SF-T27", "rental_uris": {"ios": "https://sfo.lft.to/lastmile_qr_scan", "android": "https://sfo.lft.to/lastmile_qr_scan"}, "lon": -122.39887463673973, "lat": 37.7438687228972, "capacity": 13, "name": "Toland St at Jerrold Ave", "region_id": "3", "station_id": "1950739878248286808"}, {"short_name": "SF-K24", "rental_uris": {"ios": "https://sfo.lft.to/lastmile_qr_scan", "android": "https://sfo.lft.to/lastmile_qr_scan"}, "lon": -122.4160402, "lat": 37.7735069, "capacity": 19, "name": "11th St at Natoma St", "region_id": "3", "station_id": "49754dc9-1925-4020-a599-704c9f064b03"}, {"short_name": "SF-A15", "rental_uris": {"ios": "https://sfo.lft.to/lastmile_qr_scan", "android": "https://sfo.lft.to/lastmile_qr_scan"}, "lon": -122.455079, "lat": 37.803968, "capacity": 18, "name": "Mason St at Halleck St", "region_id": "3", "station_id": "35e3bf9b-4c65-4f2b-9d46-32afe9fe82d9"}, {"short_name": "OK-K1-2", "rental_uris": {"ios": "https://sfo.lft.to/lastmile_qr_scan", "android": "https://sfo.lft.to/lastmile_qr_scan"}, "lon": -122.28947399738061, "lat": 37.81577852302503, "capacity": 19, "name": "Mandela Parkway at W Grand Ave", "region_id": "12", "station_id": "2039028142476895072"}, {"short_name": "SF-B28-2", "rental_uris": {"ios": "https://sfo.lft.to/lastmile_qr_scan", "android": "https://sfo.lft.to/lastmile_qr_scan"}, "lon": -122.4017154, "lat": 37.8020552, "capacity": 31, "name": "Battery St at Filbert St", "region_id": "3", "station_id": "6732f1f5-616c-46bc-81e6-67c5319b3c73"}, {"short_name": "SF-F23-2", "rental_uris": {"ios": "https://sfo.lft.to/lastmile_qr_scan", "android": "https://sfo.lft.to/lastmile_qr_scan"}, "lon": -122.42033508761928, "lat": 37.78847870510701, "capacity": 23, "name": "Polk St at Bush St", "region_id": "3", "station_id": "1864950509211538346"}, {"short_name": "OK-L6-2", "rental_uris": {"ios": "https://sfo.lft.to/lastmile_qr_scan", "android": "https://sfo.lft.to/lastmile_qr_scan"}, "lon": -122.26914636790752, "lat": 37.802688402040665, "capacity": 19, "name": "13th St at Webster St", "region_id": "12", "station_id": "492edeb7-7c9f-4845-b5cc-442faedb3a56"}, {"short_name": "OK-M3", "rental_uris": {"ios": "https://sfo.lft.to/lastmile_qr_scan", "android": "https://sfo.lft.to/lastmile_qr_scan"}, "lon": -122.2860187, "lat": 37.8063553, "capacity": 23, "name": "10th St at Chestnut St", "region_id": "12", "station_id": "1771130117010765886"}, {"short_name": "OK-K4", "rental_uris": {"ios": "https://sfo.lft.to/lastmile_qr_scan", "android": "https://sfo.lft.to/lastmile_qr_scan"}, "lon": -122.2734217, "lat": 37.8113514, "capacity": 19, "name": "San Pablo Ave at MLK Jr Way", "region_id": "12", "station_id": "924ea8a9-841d-43b5-99a9-bff7ca8d4b64"}, {"short_name": "SF-I26", "rental_uris": {"ios": "https://sfo.lft.to/lastmile_qr_scan", "android": "https://sfo.lft.to/lastmile_qr_scan"}, "lon": -122.4048243192974, "lat": 37.7813332251007, "capacity": 24, "name": "5th St at Howard St", "region_id": "3", "station_id": "1857579372066731006"}, {"short_name": "OK-H2-2", "rental_uris": {"ios": "https://sfo.lft.to/lastmile_qr_scan", "android": "https://sfo.lft.to/lastmile_qr_scan"}, "lon": -122.27718830108643, "lat": 37.82352279021405, "capacity": 19, "name": "Brockhurst St at San Pablo Ave", "region_id": "12", "station_id": "f665c653-569b-4a5d-b80d-67f2e4191f77"}, {"short_name": "SF-Z13", "rental_uris": {"ios": "https://sfo.lft.to/lastmile_qr_scan", "android": "https://sfo.lft.to/lastmile_qr_scan"}, "lon": -122.455102, "lat": 37.723426, "capacity": 19, "name": "Brighton Ave at Ocean Ave", "region_id": "3", "station_id": "2e4f2c49-1201-4d77-ba41-9917293f1eeb"}, {"short_name": "SF-A25", "rental_uris": {"ios": "https://sfo.lft.to/lastmile_qr_scan", "android": "https://sfo.lft.to/lastmile_qr_scan"}, "lon": -122.411536, "lat": 37.806929, "capacity": 28, "name": "North Point St at Powell St", "region_id": "3", "station_id": "2d63ccd8-6a9a-49de-9404-2ebb9ac3bf59"}, {"short_name": "SF-E20", "rental_uris": {"ios": "https://sfo.lft.to/lastmile_qr_scan", "android": "https://sfo.lft.to/lastmile_qr_scan"}, "lon": -122.43259012699126, "lat": 37.79080303242391, "capacity": 19, "name": "Webster St at Clay St", "region_id": "3", "station_id": "63b2136c-c947-473e-977e-8cc0e6347699"}, {"short_name": "SF-M1", "rental_uris": {"ios": "https://sfo.lft.to/lastmile_qr_scan", "android": "https://sfo.lft.to/lastmile_qr_scan"}, "lon": -122.509526, "lat": 37.763874, "capacity": 23, "name": "La Playa St at Lincoln Way", "region_id": "3", "station_id": "1779288244570497764"}, {"short_name": "EM-C3", "rental_uris": {"ios": "https://sfo.lft.to/lastmile_qr_scan", "android": "https://sfo.lft.to/lastmile_qr_scan"}, "lon": -122.2811258, "lat": 37.8356703, "capacity": 19, "name": "47th St at San Pablo Ave", "region_id": "13", "station_id": "1eef0966-a6b6-4da1-8726-09989c2eb044"}, {"short_name": "SF-J16", "rental_uris": {"ios": "https://sfo.lft.to/lastmile_qr_scan", "android": "https://sfo.lft.to/lastmile_qr_scan"}, "lon": -122.446649, "lat": 37.774804, "capacity": 31, "name": "Grove St at Masonic Ave", "region_id": "3", "station_id": "e98999ee-5c3d-48b8-8735-baf6518ad915"}, {"short_name": "OK-J9", "rental_uris": {"ios": "https://sfo.lft.to/lastmile_qr_scan", "android": "https://sfo.lft.to/lastmile_qr_scan"}, "lon": -122.25036793093619, "lat": 37.80513288481057, "capacity": 23, "name": "Brooklyn Ave at Lakeshore Ave", "region_id": "12", "station_id": "2115872905422813656"}, {"short_name": "BK-D7-1", "rental_uris": {"ios": "https://sfo.lft.to/lastmile_qr_scan", "android": "https://sfo.lft.to/lastmile_qr_scan"}, "lon": -122.268422, "lat": 37.870139, "capacity": 29, "name": "Downtown Berkeley BART", "region_id": "14", "station_id": "7adb5dde-e34a-4964-98d3-f64a940beacb"}, {"short_name": "OK-F4", "rental_uris": {"ios": "https://sfo.lft.to/lastmile_qr_scan", "android": "https://sfo.lft.to/lastmile_qr_scan"}, "lon": -122.2663493, "lat": 37.8285951, "capacity": 31, "name": "MacArthur BART", "region_id": "12", "station_id": "1af8102a-589a-47ea-97ec-4589b71403aa"}, {"short_name": "SF-F19", "rental_uris": {"ios": "https://sfo.lft.to/lastmile_qr_scan", "android": "https://sfo.lft.to/lastmile_qr_scan"}, "lon": -122.43540108203887, "lat": 37.788568914161615, "capacity": 19, "name": "Steiner St at California St", "region_id": "3", "station_id": "434e592c-be93-4300-b76a-98de4cd3326e"}, {"short_name": "SF-F27-2", "rental_uris": {"ios": "https://sfo.lft.to/lastmile_qr_scan", "android": "https://sfo.lft.to/lastmile_qr_scan"}, "lon": -122.40419892776805, "lat": 37.79096333689464, "capacity": 31, "name": "Kearny St at Bush St", "region_id": "3", "station_id": "2072118173388302882"}, {"short_name": "OK-F5-1", "rental_uris": {"ios": "https://sfo.lft.to/lastmile_qr_scan", "android": "https://sfo.lft.to/lastmile_qr_scan"}, "lon": -122.26075912464111, "lat": 37.82876385742399, "capacity": 19, "name": "Webster St at 40th St", "region_id": "12", "station_id": "2137004309716253358"}, {"short_name": "OK-H9-1", "rental_uris": {"ios": "https://sfo.lft.to/lastmile_qr_scan", "android": "https://sfo.lft.to/lastmile_qr_scan"}, "lon": -122.2472152, "lat": 37.8127441, "capacity": 19, "name": "Grand Ave at Santa Clara Ave", "region_id": "12", "station_id": "1c2e5680-719b-4674-9837-092c367594ba"}, {"short_name": "SF-S22-2", "rental_uris": {"ios": "https://sfo.lft.to/lastmile_qr_scan", "android": "https://sfo.lft.to/lastmile_qr_scan"}, "lon": -122.42214024066925, "lat": 37.745738796183325, "capacity": 15, "name": "Guerrero Park", "region_id": "3", "station_id": "aacc087a-f075-4682-a0df-be4c30c4a632"}, {"short_name": "SF-J5", "rental_uris": {"ios": "https://sfo.lft.to/lastmile_qr_scan", "android": "https://sfo.lft.to/lastmile_qr_scan"}, "lon": -122.494064, "lat": 37.775681, "capacity": 19, "name": "34th Ave at Balboa St", "region_id": "3", "station_id": "4938bd2c-37c1-4be9-9ad3-3b3d3d589248"}, {"short_name": "BK-I6", "rental_uris": {"ios": "https://sfo.lft.to/lastmile_qr_scan", "android": "https://sfo.lft.to/lastmile_qr_scan"}, "lon": -122.270582, "lat": 37.849735, "capacity": 15, "name": "Harmon St at Adeline St", "region_id": "14", "station_id": "fd89514c-f878-4cd5-8113-8e5beead44de"}, {"short_name": "OK-L8", "rental_uris": {"ios": "https://sfo.lft.to/lastmile_qr_scan", "android": "https://sfo.lft.to/lastmile_qr_scan"}, "lon": -122.2629973, "lat": 37.7976728, "capacity": 23, "name": "10th St at Fallon St", "region_id": "12", "station_id": "7018fb4d-6799-4a20-8ea4-739f789cd096"}, {"short_name": "BK-G8", "rental_uris": {"ios": "https://sfo.lft.to/lastmile_qr_scan", "android": "https://sfo.lft.to/lastmile_qr_scan"}, "lon": -122.26160466670989, "lat": 37.85760774739988, "capacity": 15, "name": "Ellsworth St at Russell St", "region_id": "14", "station_id": "429a3ffa-e0df-4497-b6e9-91e3ccb12c1c"}, {"short_name": "OK-L4", "rental_uris": {"ios": "https://sfo.lft.to/lastmile_qr_scan", "android": "https://sfo.lft.to/lastmile_qr_scan"}, "lon": -122.275156, "lat": 37.805207, "capacity": 19, "name": "Jefferson St at 14th St", "region_id": "12", "station_id": "e4921f52-7a6c-4baa-b057-ddc7051980ca"}, {"short_name": "SF-V30-1", "rental_uris": {"ios": "https://sfo.lft.to/lastmile_qr_scan", "android": "https://sfo.lft.to/lastmile_qr_scan"}, "lon": -122.38908866713396, "lat": 37.74058873182711, "capacity": 13, "name": "Hudson Ave at 3rd St", "region_id": "3", "station_id": "1788900668107346898"}, {"short_name": "SF-O22", "rental_uris": {"ios": "https://sfo.lft.to/lastmile_qr_scan", "android": "https://sfo.lft.to/lastmile_qr_scan"}, "lon": -122.42145756626786, "lat": 37.75901675476946, "capacity": 23, "name": "Mission Playground", "region_id": "3", "station_id": "f6c0f2ed-11cc-4b74-9d03-f2b298c9bd1b"}, {"short_name": "SF-K27-2", "rental_uris": {"ios": "https://sfo.lft.to/lastmile_qr_scan", "android": "https://sfo.lft.to/lastmile_qr_scan"}, "lon": -122.4039235, "lat": 37.7724385, "capacity": 24, "name": "Brannan St at 7th St", "region_id": "3", "station_id": "ab03623f-6fe9-4e9b-b38b-6e98513082d1"}, {"short_name": "SF-K20", "rental_uris": {"ios": "https://sfo.lft.to/lastmile_qr_scan", "android": "https://sfo.lft.to/lastmile_qr_scan"}, "lon": -122.4337079, "lat": 37.7717933, "capacity": 27, "name": "Pierce St at Haight St", "region_id": "3", "station_id": "1de96988-6dfc-4f97-8570-6d8664b6e88a"}, {"short_name": "SF-G13", "rental_uris": {"ios": "https://sfo.lft.to/lastmile_qr_scan", "android": "https://sfo.lft.to/lastmile_qr_scan"}, "lon": -122.45880603790283, "lat": 37.78146761537824, "capacity": 19, "name": "Arguello Blvd at Geary Blvd", "region_id": "3", "station_id": "b513d838-5423-490c-bf7d-9f20771cf529"}, {"short_name": "SF-P24", "rental_uris": {"ios": "https://sfo.lft.to/lastmile_qr_scan", "android": "https://sfo.lft.to/lastmile_qr_scan"}, "lon": -122.412544, "lat": 37.758862, "capacity": 19, "name": "Harrison St at 20th St", "region_id": "3", "station_id": "cae028f4-b136-4297-8f28-559986e3f810"}, {"short_name": "SF-R1", "rental_uris": {"ios": "https://sfo.lft.to/lastmile_qr_scan", "android": "https://sfo.lft.to/lastmile_qr_scan"}, "lon": -122.50753516831912, "lat": 37.74732995515812, "capacity": 15, "name": "Quintara St at Great Highway", "region_id": "3", "station_id": "2001968238123600070"}, {"short_name": "SF-X16", "rental_uris": {"ios": "https://sfo.lft.to/lastmile_qr_scan", "android": "https://sfo.lft.to/lastmile_qr_scan"}, "lon": -122.44430475172521, "lat": 37.730655429236556, "capacity": 19, "name": "Detroit St at Hearst Ave", "region_id": "3", "station_id": "41b2200f-7915-410b-95c6-084bc4d3dee8"}, {"short_name": "SF-Y29", "rental_uris": {"ios": "https://sfo.lft.to/lastmile_qr_scan", "android": "https://sfo.lft.to/lastmile_qr_scan"}, "lon": -122.39289611577988, "lat": 37.729278651730276, "capacity": 19, "name": "Williams Ave at 3rd St", "region_id": "3", "station_id": "c4c4484d-0e18-44d4-a992-c5d0550ba94d"}, {"short_name": "SF-M28", "rental_uris": {"ios": "https://sfo.lft.to/lastmile_qr_scan", "android": "https://sfo.lft.to/lastmile_qr_scan"}, "lon": -122.398198, "lat": 37.766594, "capacity": 27, "name": "Hubbell St at 16th St", "region_id": "3", "station_id": "e66227f7-bd49-46be-b5ee-ce6518ac9dd4"}, {"short_name": "OK-J6-1", "rental_uris": {"ios": "https://sfo.lft.to/lastmile_qr_scan", "android": "https://sfo.lft.to/lastmile_qr_scan"}, "lon": -122.2651925, "lat": 37.8113768, "capacity": 27, "name": "Grand Ave at Webster St", "region_id": "12", "station_id": "cb84be53-d226-47fc-aa81-789c037361d4"}, {"short_name": "DC-05", "rental_uris": {"ios": "https://sfo.lft.to/lastmile_qr_scan", "android": "https://sfo.lft.to/lastmile_qr_scan"}, "lon": -122.48545017210475, "lat": 37.69729765046299, "capacity": 8, "name": "Westlake Library", "station_id": "2127330289470781728"}, {"short_name": "SF-B28", "rental_uris": {"ios": "https://sfo.lft.to/lastmile_qr_scan", "android": "https://sfo.lft.to/lastmile_qr_scan"}, "lon": -122.402087, "lat": 37.804648, "capacity": 23, "name": "Cruise Terminal at Pier 27", "region_id": "3", "station_id": "d82d9e94-bb62-4001-b6ad-50603199554d"}, {"short_name": "SF-GGP-04", "rental_uris": {"ios": "https://sfo.lft.to/lastmile_qr_scan", "android": "https://sfo.lft.to/lastmile_qr_scan"}, "lon": -122.495772, "lat": 37.771589, "capacity": 27, "name": "36th Ave at Spreckels Lake Dr", "region_id": "3", "station_id": "1846835113335406860"}, {"short_name": "EM-A1", "rental_uris": {"ios": "https://sfo.lft.to/lastmile_qr_scan", "android": "https://sfo.lft.to/lastmile_qr_scan"}, "lon": -122.2913604, "lat": 37.8409452, "capacity": 19, "name": "59th St at Horton St", "region_id": "13", "station_id": "5ea1329c-9fe6-4c24-9de7-34967a9fa428"}, {"short_name": "SF-H0", "rental_uris": {"ios": "https://sfo.lft.to/lastmile_qr_scan", "android": "https://sfo.lft.to/lastmile_qr_scan"}, "lon": -122.511208, "lat": 37.775211, "capacity": 27, "name": "Great Highway at Balboa St", "region_id": "3", "station_id": "702e67bf-a75e-4352-8b20-425a19c1845c"}, {"short_name": "SF-C28-1", "rental_uris": {"ios": "https://sfo.lft.to/lastmile_qr_scan", "android": "https://sfo.lft.to/lastmile_qr_scan"}, "lon": -122.398525, "lat": 37.799953, "capacity": 23, "name": "The Embarcadero at Vallejo St", "region_id": "3", "station_id": "7c7ac914-40e5-426d-b9c4-f12b1a556be8"}, {"short_name": "OK-E5", "rental_uris": {"ios": "https://sfo.lft.to/lastmile_qr_scan", "android": "https://sfo.lft.to/lastmile_qr_scan"}, "lon": -122.25622415542603, "lat": 37.8332935222321, "capacity": 23, "name": "45th St at Manila", "region_id": "12", "station_id": "42019e90-fa74-4a77-9051-5dfed81a32de"}, {"short_name": "OK-L6", "rental_uris": {"ios": "https://sfo.lft.to/lastmile_qr_scan", "android": "https://sfo.lft.to/lastmile_qr_scan"}, "lon": -122.27049618959427, "lat": 37.80303013575619, "capacity": 23, "name": "Franklin St at 13th St", "region_id": "12", "station_id": "10c593a0-39c8-45ec-bbf6-fd7fbdf30cb5"}, {"short_name": "OK-G2", "rental_uris": {"ios": "https://sfo.lft.to/lastmile_qr_scan", "android": "https://sfo.lft.to/lastmile_qr_scan"}, "lon": -122.2739367, "lat": 37.8305452, "capacity": 15, "name": "Market St at 40th St", "region_id": "12", "station_id": "316f6785-47aa-4e37-b81b-3cf829bf5120"}, {"short_name": "EM-A2", "rental_uris": {"ios": "https://sfo.lft.to/lastmile_qr_scan", "android": "https://sfo.lft.to/lastmile_qr_scan"}, "lon": -122.2880451, "lat": 37.8419238, "capacity": 15, "name": "Doyle St at 59th St", "region_id": "13", "station_id": "4fea6876-e80d-4a29-9966-820ac15cd3b4"}, {"short_name": "SF-F17-1", "rental_uris": {"ios": "https://sfo.lft.to/lastmile_qr_scan", "android": "https://sfo.lft.to/lastmile_qr_scan"}, "lon": -122.4450687, "lat": 37.7892792, "capacity": 23, "name": "Clay St at Lyon St", "region_id": "3", "station_id": "34254a87-40e5-462a-804f-20dab65726e4"}, {"short_name": "SF-Y16", "rental_uris": {"ios": "https://sfo.lft.to/lastmile_qr_scan", "android": "https://sfo.lft.to/lastmile_qr_scan"}, "lon": -122.4432384967804, "lat": 37.72489268384971, "capacity": 23, "name": "Balboa Park", "region_id": "3", "station_id": "fed768af-80bd-4567-9a94-df9b7e369433"}, {"short_name": "SF-C25", "rental_uris": {"ios": "https://sfo.lft.to/lastmile_qr_scan", "android": "https://sfo.lft.to/lastmile_qr_scan"}, "lon": -122.41088703274725, "lat": 37.800496036682574, "capacity": 30, "name": "Powell St at Columbus Ave", "region_id": "3", "station_id": "fb39d594-8fdb-440e-80c5-8a544b339007"}, {"short_name": "SF-C22", "rental_uris": {"ios": "https://sfo.lft.to/lastmile_qr_scan", "android": "https://sfo.lft.to/lastmile_qr_scan"}, "lon": -122.423534989357, "lat": 37.79762790889688, "capacity": 23, "name": "Green St at Van Ness Ave", "region_id": "3", "station_id": "cb20f487-2e7d-4c11-9f19-2b669ff9fd7f"}, {"short_name": "SF-H30-2", "rental_uris": {"ios": "https://sfo.lft.to/lastmile_qr_scan", "android": "https://sfo.lft.to/lastmile_qr_scan"}, "lon": -122.390002088434, "lat": 37.78384421884662, "capacity": 27, "name": "Delancey St at Brannan St", "region_id": "3", "station_id": "1797852360041415006"}, {"short_name": "SF-J22-2", "rental_uris": {"ios": "https://sfo.lft.to/lastmile_qr_scan", "android": "https://sfo.lft.to/lastmile_qr_scan"}, "lon": -122.42295295000075, "lat": 37.77787007022392, "capacity": 25, "name": "Grove St at Gough St", "region_id": "3", "station_id": "578f166a-d83f-4730-b12d-f1384b7b8c44"}, {"short_name": "SF-K27-3", "rental_uris": {"ios": "https://sfo.lft.to/lastmile_qr_scan", "android": "https://sfo.lft.to/lastmile_qr_scan"}, "lon": -122.40185, "lat": 37.774256, "capacity": 28, "name": "Brannan St at Harriet St", "region_id": "3", "station_id": "1796768684962034320"}, {"short_name": "SF-H14", "rental_uris": {"ios": "https://sfo.lft.to/lastmile_qr_scan", "android": "https://sfo.lft.to/lastmile_qr_scan"}, "lon": -122.456303, "lat": 37.780949, "capacity": 19, "name": "Stanyan St at Geary Blvd", "region_id": "3", "station_id": "41c6b82b-2e59-4fa2-a7ad-f6cd0bcd9130"}, {"short_name": "SF-M21", "rental_uris": {"ios": "https://sfo.lft.to/lastmile_qr_scan", "android": "https://sfo.lft.to/lastmile_qr_scan"}, "lon": -122.4266585, "lat": 37.7661, "capacity": 19, "name": "Dolores St at 15th St", "region_id": "3", "station_id": "fa33d61b-8ba5-4c23-9603-8d9ebf167d5d"}, {"short_name": "SF-B21", "rental_uris": {"ios": "https://sfo.lft.to/lastmile_qr_scan", "android": "https://sfo.lft.to/lastmile_qr_scan"}, "lon": -122.42578603327274, "lat": 37.80028668467315, "capacity": 19, "name": "Greenwich St at Franklin St", "region_id": "3", "station_id": "c8a342d4-3bf7-4619-9ae1-9b382d5440e1"}, {"short_name": "SF-P1", "rental_uris": {"ios": "https://sfo.lft.to/lastmile_qr_scan", "android": "https://sfo.lft.to/lastmile_qr_scan"}, "lon": -122.5085402813285, "lat": 37.75300468614256, "capacity": 18, "name": "Great Highway at Noriega St", "region_id": "3", "station_id": "1784515760723857816"}, {"short_name": "DC-06", "rental_uris": {"ios": "https://sfo.lft.to/lastmile_qr_scan", "android": "https://sfo.lft.to/lastmile_qr_scan"}, "lon": -122.46572981327651, "lat": 37.69342998657259, "capacity": 8, "name": "School St at Bruno Ave", "station_id": "2127330451353517020"}, {"short_name": "SF-J15", "rental_uris": {"ios": "https://sfo.lft.to/lastmile_qr_scan", "android": "https://sfo.lft.to/lastmile_qr_scan"}, "lon": -122.4530929327011, "lat": 37.77610091264586, "capacity": 27, "name": "Parker Ave at McAllister St", "region_id": "3", "station_id": "f2c2ba49-25e1-4493-8565-5df5af66e153"}, {"short_name": "SF-S24", "rental_uris": {"ios": "https://sfo.lft.to/lastmile_qr_scan", "android": "https://sfo.lft.to/lastmile_qr_scan"}, "lon": -122.4106569446244, "lat": 37.747072052005116, "capacity": 15, "name": "Precita Park", "region_id": "3", "station_id": "615bca10-5b2a-4b7e-876c-04c4d3d9e360"}, {"short_name": "OK-M7", "rental_uris": {"ios": "https://sfo.lft.to/lastmile_qr_scan", "android": "https://sfo.lft.to/lastmile_qr_scan"}, "lon": -122.2653199, "lat": 37.7973195, "capacity": 27, "name": "Lake Merritt BART", "region_id": "12", "station_id": "ce264eb5-ebfe-4a03-8bd3-e319c32614ec"}, {"short_name": "SF-M20", "rental_uris": {"ios": "https://sfo.lft.to/lastmile_qr_scan", "android": "https://sfo.lft.to/lastmile_qr_scan"}, "lon": -122.4310597, "lat": 37.7662185, "capacity": 27, "name": "Sanchez St at 15th St", "region_id": "3", "station_id": "0c9cb910-8442-4df6-a997-704d817583ab"}, {"short_name": "SF-S21", "rental_uris": {"ios": "https://sfo.lft.to/lastmile_qr_scan", "android": "https://sfo.lft.to/lastmile_qr_scan"}, "lon": -122.4249863, "lat": 37.7478584, "capacity": 15, "name": "Cesar Chavez St at Dolores St", "region_id": "3", "station_id": "9202aa09-26ee-4220-9281-c66b7bbe7b38"}, {"short_name": "OK-L16", "rental_uris": {"ios": "https://sfo.lft.to/lastmile_qr_scan", "android": "https://sfo.lft.to/lastmile_qr_scan"}, "lon": -122.2226033, "lat": 37.7837569, "capacity": 15, "name": "Foothill Blvd at Fruitvale Ave", "region_id": "12", "station_id": "ea88423e-8147-4d3e-a51f-22430d3d728c"}, {"short_name": "SF-J20", "rental_uris": {"ios": "https://sfo.lft.to/lastmile_qr_scan", "android": "https://sfo.lft.to/lastmile_qr_scan"}, "lon": -122.4295585, "lat": 37.7770527, "capacity": 27, "name": "Webster St at Grove St", "region_id": "3", "station_id": "fde4cecd-7497-4bdb-a452-0e1a755e7759"}, {"short_name": "SF-Q22-1", "rental_uris": {"ios": "https://sfo.lft.to/lastmile_qr_scan", "android": "https://sfo.lft.to/lastmile_qr_scan"}, "lon": -122.42113704087866, "lat": 37.755279555311766, "capacity": 19, "name": "22nd St at Valencia St", "region_id": "3", "station_id": "759c388e-ab9b-40c2-ae96-ee5190264916"}, {"short_name": "SF-Q4", "rental_uris": {"ios": "https://sfo.lft.to/lastmile_qr_scan", "android": "https://sfo.lft.to/lastmile_qr_scan"}, "lon": -122.49560004673242, "lat": 37.75173717215301, "capacity": 19, "name": "37th Ave at Ortega St", "region_id": "3", "station_id": "1796350119944825152"}, {"short_name": "SF-I29-2", "rental_uris": {"ios": "https://sfo.lft.to/lastmile_qr_scan", "android": "https://sfo.lft.to/lastmile_qr_scan"}, "lon": -122.3949894, "lat": 37.7807601, "capacity": 29, "name": "South Park St at 3rd St", "region_id": "3", "station_id": "a6bfff23-97d9-4a9d-b999-dd85168d8812"}, {"short_name": "SF-M26", "rental_uris": {"ios": "https://sfo.lft.to/lastmile_qr_scan", "android": "https://sfo.lft.to/lastmile_qr_scan"}, "lon": -122.40735858678818, "lat": 37.767078504583665, "capacity": 27, "name": "15th St at Potrero Ave", "region_id": "3", "station_id": "fdbfa7f9-d3eb-4c9d-ab6c-0e3300da314e"}, {"short_name": "SF-P30", "rental_uris": {"ios": "https://sfo.lft.to/lastmile_qr_scan", "android": "https://sfo.lft.to/lastmile_qr_scan"}, "lon": -122.39188492298126, "lat": 37.75770404149008, "capacity": 35, "name": "22nd St Caltrain Station", "region_id": "3", "station_id": "e7691d93-eed6-4388-b681-00ae0b455d23"}, {"short_name": "OK-L5", "rental_uris": {"ios": "https://sfo.lft.to/lastmile_qr_scan", "android": "https://sfo.lft.to/lastmile_qr_scan"}, "lon": -122.27173805236816, "lat": 37.8045623549303, "capacity": 35, "name": "Frank H Ogawa Plaza", "region_id": "12", "station_id": "9e3efff1-3d42-46fd-8206-4021277ba6c2"}, {"short_name": "SF-U7", "rental_uris": {"ios": "https://sfo.lft.to/lastmile_qr_scan", "android": "https://sfo.lft.to/lastmile_qr_scan"}, "lon": -122.48314781967206, "lat": 37.73892988337994, "capacity": 23, "name": "Vicente St at 26th Ave", "region_id": "3", "station_id": "2004548332289237370"}, {"short_name": "OK-N10", "rental_uris": {"ios": "https://sfo.lft.to/lastmile_qr_scan", "android": "https://sfo.lft.to/lastmile_qr_scan"}, "lon": -122.25555462691868, "lat": 37.787440960713916, "capacity": 19, "name": "Brooklyn Basin", "region_id": "12", "station_id": "2069128174168179002"}, {"short_name": "BK-H3", "rental_uris": {"ios": "https://sfo.lft.to/lastmile_qr_scan", "android": "https://sfo.lft.to/lastmile_qr_scan"}, "lon": -122.28944645338662, "lat": 37.85299776297823, "capacity": 15, "name": "Ninth St at Heinz Ave", "region_id": "14", "station_id": "7cec0a12-76ab-4472-b38c-8e8ad02688a5"}, {"short_name": "SF-T22", "rental_uris": {"ios": "https://sfo.lft.to/lastmile_qr_scan", "android": "https://sfo.lft.to/lastmile_qr_scan"}, "lon": -122.42236317795394, "lat": 37.74402435561769, "capacity": 19, "name": "29th St at Tiffany Ave", "region_id": "3", "station_id": "86e91819-05c0-4150-ab16-83d8480dc7f4"}, {"short_name": "EM-D3", "rental_uris": {"ios": "https://sfo.lft.to/lastmile_qr_scan", "android": "https://sfo.lft.to/lastmile_qr_scan"}, "lon": -122.2856333, "lat": 37.8312752, "capacity": 23, "name": "Emeryville Town Hall", "region_id": "13", "station_id": "47f5b0d6-a2db-482c-9680-10759094c4a4"}, {"short_name": "BK-G10", "rental_uris": {"ios": "https://sfo.lft.to/lastmile_qr_scan", "android": "https://sfo.lft.to/lastmile_qr_scan"}, "lon": -122.2532529, "lat": 37.8584732, "capacity": 19, "name": "Russell St at College Ave", "region_id": "14", "station_id": "f33b866f-ce2e-4d48-9b2a-cf566ba59039"}, {"short_name": "BK-A7", "rental_uris": {"ios": "https://sfo.lft.to/lastmile_qr_scan", "android": "https://sfo.lft.to/lastmile_qr_scan"}, "lon": -122.26959228515624, "lat": 37.88022244590679, "capacity": 15, "name": "Vine St at Shattuck Ave", "region_id": "14", "station_id": "618c724d-9025-470b-8621-4500a9b69773"}, {"short_name": "SF-Y18", "rental_uris": {"ios": "https://sfo.lft.to/lastmile_qr_scan", "android": "https://sfo.lft.to/lastmile_qr_scan"}, "lon": -122.4354739, "lat": 37.7273951, "capacity": 23, "name": "Alemany Blvd at Francis St", "region_id": "3", "station_id": "71a4bb9f-1cec-4b1e-9534-51e82c9201d0"}, {"short_name": "BK-F8", "rental_uris": {"ios": "https://sfo.lft.to/lastmile_qr_scan", "android": "https://sfo.lft.to/lastmile_qr_scan"}, "lon": -122.2647911, "lat": 37.8624644, "capacity": 23, "name": "Parker St at Fulton St", "region_id": "14", "station_id": "70cd5518-091f-4331-a80e-53df97db1a81"}, {"short_name": "SF-GGP-01", "rental_uris": {"ios": "https://sfo.lft.to/lastmile_qr_scan", "android": "https://sfo.lft.to/lastmile_qr_scan"}, "lon": -122.45828202004182, "lat": 37.77169999448369, "capacity": 24, "name": "Pompei Circle at JFK Dr", "region_id": "3", "station_id": "1838251762103669212"}, {"short_name": "OK-N1", "rental_uris": {"ios": "https://sfo.lft.to/lastmile_qr_scan", "android": "https://sfo.lft.to/lastmile_qr_scan"}, "lon": -122.29461686454057, "lat": 37.8051895, "capacity": 23, "name": "West Oakland BART", "region_id": "12", "station_id": "270425db-c369-4d4b-b8de-fae86c896a3c"}, {"short_name": "SF-N4", "rental_uris": {"ios": "https://sfo.lft.to/lastmile_qr_scan", "android": "https://sfo.lft.to/lastmile_qr_scan"}, "lon": -122.4951291, "lat": 37.7589001, "capacity": 19, "name": "36th Ave at Kirkham St", "region_id": "3", "station_id": "1776721445096440270"}, {"short_name": "OK-A4", "rental_uris": {"ios": "https://sfo.lft.to/lastmile_qr_scan", "android": "https://sfo.lft.to/lastmile_qr_scan"}, "lon": -122.2525406, "lat": 37.8494355, "capacity": 23, "name": "62nd St at Claremont Ave", "region_id": "12", "station_id": "b4717e68-fb91-4e74-819f-4a9580a84ca5"}, {"short_name": "OK-D5", "rental_uris": {"ios": "https://sfo.lft.to/lastmile_qr_scan", "android": "https://sfo.lft.to/lastmile_qr_scan"}, "lon": -122.2516207, "lat": 37.8357883, "capacity": 23, "name": "Broadway at Coronado Ave", "region_id": "12", "station_id": "67ed16db-4800-4671-bba4-e8ef52d6d74e"}, {"short_name": "SF-I25", "rental_uris": {"ios": "https://sfo.lft.to/lastmile_qr_scan", "android": "https://sfo.lft.to/lastmile_qr_scan"}, "lon": -122.4117382, "lat": 37.7810737, "capacity": 31, "name": "Civic Center BART", "region_id": "3", "station_id": "6ab85eb1-e112-4c57-8a44-110120d68a1d"}, {"short_name": "OK-H9-2", "rental_uris": {"ios": "https://sfo.lft.to/lastmile_qr_scan", "android": "https://sfo.lft.to/lastmile_qr_scan"}, "lon": -122.2432677, "lat": 37.8110807, "capacity": 15, "name": "Lakeshore Ave at Trestle Glen Rd", "region_id": "12", "station_id": "717e6e13-e1b2-4c13-944d-823a556c1635"}, {"short_name": "SF-L15", "rental_uris": {"ios": "https://sfo.lft.to/lastmile_qr_scan", "android": "https://sfo.lft.to/lastmile_qr_scan"}, "lon": -122.45196695803196, "lat": 37.768384314385024, "capacity": 27, "name": "Waller St at Shrader St", "region_id": "3", "station_id": "7d15210b-55fb-4456-8281-781cfa9d5594"}, {"short_name": "SF-E29-5", "rental_uris": {"ios": "https://sfo.lft.to/lastmile_qr_scan", "android": "https://sfo.lft.to/lastmile_qr_scan"}, "lon": -122.39633148173716, "lat": 37.792847144700225, "capacity": 27, "name": "Main St at Market St", "region_id": "3", "station_id": "2052401785071090130"}, {"short_name": "SF-K28", "rental_uris": {"ios": "https://sfo.lft.to/lastmile_qr_scan", "android": "https://sfo.lft.to/lastmile_qr_scan"}, "lon": -122.39743709564209, "lat": 37.77523486860597, "capacity": 35, "name": "Townsend St at 5th St", "region_id": "3", "station_id": "38a24ab3-8b5e-4d6d-804b-d4e89d19601e"}, {"short_name": "SF-J29-4", "rental_uris": {"ios": "https://sfo.lft.to/lastmile_qr_scan", "android": "https://sfo.lft.to/lastmile_qr_scan"}, "lon": -122.3943768096982, "lat": 37.776454678641656, "capacity": 12, "name": "San Francisco Caltrain Station - 4th St", "region_id": "3", "station_id": "1962925195831102292"}, {"short_name": "SF-G20", "rental_uris": {"ios": "https://sfo.lft.to/lastmile_qr_scan", "android": "https://sfo.lft.to/lastmile_qr_scan"}, "lon": -122.43177297982335, "lat": 37.78539004090868, "capacity": 31, "name": "Post St at Webster St", "region_id": "3", "station_id": "a5c3e383-f1b0-449f-8ad4-96291f38c636"}, {"short_name": "SF-Z16", "rental_uris": {"ios": "https://sfo.lft.to/lastmile_qr_scan", "android": "https://sfo.lft.to/lastmile_qr_scan"}, "lon": -122.44380980730057, "lat": 37.72238229348268, "capacity": 24, "name": "Delano Ave at Oneida Ave", "region_id": "3", "station_id": "7dfe1c94-5eae-41a7-ad42-3d3f4c7610a3"}, {"short_name": "BK-D4", "rental_uris": {"ios": "https://sfo.lft.to/lastmile_qr_scan", "android": "https://sfo.lft.to/lastmile_qr_scan"}, "lon": -122.28653311729431, "lat": 37.869966707604036, "capacity": 15, "name": "West St at University Ave", "region_id": "14", "station_id": "0b81b2ae-d9bf-4b66-b5e0-687205d4bc12"}, {"short_name": "SF-F29", "rental_uris": {"ios": "https://sfo.lft.to/lastmile_qr_scan", "android": "https://sfo.lft.to/lastmile_qr_scan"}, "lon": -122.3938751220703, "lat": 37.790296440371655, "capacity": 31, "name": "Howard St at Beale St", "region_id": "3", "station_id": "083eaf2a-4d3f-4d83-986a-98f67f7f22b4"}, {"short_name": "OK-L7", "rental_uris": {"ios": "https://sfo.lft.to/lastmile_qr_scan", "android": "https://sfo.lft.to/lastmile_qr_scan"}, "lon": -122.26643800735472, "lat": 37.80000163118878, "capacity": 26, "name": "Jackson St at 11th St", "region_id": "12", "station_id": "2dbb5c93-f749-47b9-bcad-ce6c3b26ba35"}, {"short_name": "SF-E23", "rental_uris": {"ios": "https://sfo.lft.to/lastmile_qr_scan", "android": "https://sfo.lft.to/lastmile_qr_scan"}, "lon": -122.42156758904456, "lat": 37.79416044174933, "capacity": 31, "name": "Jackson St at Polk St", "region_id": "3", "station_id": "ed438146-1615-45c6-bf54-07e2de0adcf1"}, {"short_name": "SF-F29-2", "rental_uris": {"ios": "https://sfo.lft.to/lastmile_qr_scan", "android": "https://sfo.lft.to/lastmile_qr_scan"}, "lon": -122.39683994554638, "lat": 37.788829107763824, "capacity": 19, "name": "Natoma St at 1st St", "region_id": "3", "station_id": "2142203700417968150"}, {"short_name": "OK-K11", "rental_uris": {"ios": "https://sfo.lft.to/lastmile_qr_scan", "android": "https://sfo.lft.to/lastmile_qr_scan"}, "lon": -122.24442771710703, "lat": 37.79456581381641, "capacity": 23, "name": "11th Ave at 19th St", "region_id": "12", "station_id": "2115876786602304360"}, {"short_name": "SF-N23", "rental_uris": {"ios": "https://sfo.lft.to/lastmile_qr_scan", "android": "https://sfo.lft.to/lastmile_qr_scan"}, "lon": -122.41552403555308, "lat": 37.7637348, "capacity": 23, "name": "In Chan Kaajal Park", "region_id": "3", "station_id": "d6ebe802-3db6-4106-b3c7-4791c801a91f"}, {"short_name": "SF-A20", "rental_uris": {"ios": "https://sfo.lft.to/lastmile_qr_scan", "android": "https://sfo.lft.to/lastmile_qr_scan"}, "lon": -122.433523, "lat": 37.8044325, "capacity": 28, "name": "Buchanan St at North Point St", "region_id": "3", "station_id": "94b81aae-caf3-4ad6-867f-353057ad98d5"}, {"short_name": "SF-M22-2", "rental_uris": {"ios": "https://sfo.lft.to/lastmile_qr_scan", "android": "https://sfo.lft.to/lastmile_qr_scan"}, "lon": -122.42186344137991, "lat": 37.76660177487907, "capacity": 23, "name": "15th St at Valencia St", "region_id": "3", "station_id": "a5c8beca-df86-4cac-8229-ac1d7b010401"}, {"short_name": "OK-D4", "rental_uris": {"ios": "https://sfo.lft.to/lastmile_qr_scan", "android": "https://sfo.lft.to/lastmile_qr_scan"}, "lon": -122.262654, "lat": 37.83575, "capacity": 15, "name": "Telegraph Ave at 49th St", "region_id": "12", "station_id": "971307f6-5491-4112-beac-6b6960af6c0d"}, {"short_name": "BK-H6", "rental_uris": {"ios": "https://sfo.lft.to/lastmile_qr_scan", "android": "https://sfo.lft.to/lastmile_qr_scan"}, "lon": -122.2702132, "lat": 37.8524766, "capacity": 23, "name": "Ashby BART", "region_id": "14", "station_id": "25e8f173-3c6f-43d5-9806-af1c72f6f3d8"}, {"short_name": "SF-M26-2", "rental_uris": {"ios": "https://sfo.lft.to/lastmile_qr_scan", "android": "https://sfo.lft.to/lastmile_qr_scan"}, "lon": -122.40423738710535, "lat": 37.7685449, "capacity": 27, "name": "Alameda St at Henry Adams St", "region_id": "3", "station_id": "b8c5214e-5d26-47d0-aba5-d62ef145d083"}, {"short_name": "SF-E29-1", "rental_uris": {"ios": "https://sfo.lft.to/lastmile_qr_scan", "android": "https://sfo.lft.to/lastmile_qr_scan"}, "lon": -122.394203, "lat": 37.795392, "capacity": 38, "name": "San Francisco Ferry Building", "region_id": "3", "station_id": "b2e9118f-aafb-49fb-b237-4ba08e21f51f"}, {"short_name": "SF-V23", "rental_uris": {"ios": "https://sfo.lft.to/lastmile_qr_scan", "android": "https://sfo.lft.to/lastmile_qr_scan"}, "lon": -122.41730805311877, "lat": 37.739080619245414, "capacity": 21, "name": "Cortland Ave at Wool St", "region_id": "3", "station_id": "1940303648929886926"}, {"short_name": "SF-Z7", "rental_uris": {"ios": "https://sfo.lft.to/lastmile_qr_scan", "android": "https://sfo.lft.to/lastmile_qr_scan"}, "lon": -122.478859, "lat": 37.72095, "capacity": 31, "name": "Holloway Ave at Arellano Ave", "region_id": "3", "station_id": "c2169cbb-4ff3-405a-a656-729171b13d47"}, {"short_name": "SF-Z6", "rental_uris": {"ios": "https://sfo.lft.to/lastmile_qr_scan", "android": "https://sfo.lft.to/lastmile_qr_scan"}, "lon": -122.482735, "lat": 37.722001, "capacity": 30, "name": "Font Blvd at Arballo Dr", "region_id": "3", "station_id": "44647200-5fea-47fc-a629-c1884554afb8"}, {"short_name": "SF-K16", "rental_uris": {"ios": "https://sfo.lft.to/lastmile_qr_scan", "android": "https://sfo.lft.to/lastmile_qr_scan"}, "lon": -122.44534134864807, "lat": 37.771134537078765, "capacity": 32, "name": "Page St at Masonic Ave", "region_id": "3", "station_id": "b15389ba-6c9e-4c5a-bd3b-e4539b8b908c"}, {"short_name": "SF-M22-1", "rental_uris": {"ios": "https://sfo.lft.to/lastmile_qr_scan", "android": "https://sfo.lft.to/lastmile_qr_scan"}, "lon": -122.420359, "lat": 37.768227, "capacity": 19, "name": "14th St at Mission St", "region_id": "3", "station_id": "b65fc6af-b92c-41c5-8c63-e26cdfa3cda1"}, {"short_name": "SF-D28", "rental_uris": {"ios": "https://sfo.lft.to/lastmile_qr_scan", "android": "https://sfo.lft.to/lastmile_qr_scan"}, "lon": -122.398436, "lat": 37.79728, "capacity": 35, "name": "Davis St at Jackson St", "region_id": "3", "station_id": "faad71bc-21e3-4ce1-8b84-63f782a91d1b"}, {"short_name": "SF-B15", "rental_uris": {"ios": "https://sfo.lft.to/lastmile_qr_scan", "android": "https://sfo.lft.to/lastmile_qr_scan"}, "lon": -122.452599, "lat": 37.799676, "capacity": 23, "name": "Torney Ave at Lincoln Blvd", "region_id": "3", "station_id": "0c9f99fe-9f18-4489-bf50-c744a7288819"}, {"short_name": "SF-A26", "rental_uris": {"ios": "https://sfo.lft.to/lastmile_qr_scan", "android": "https://sfo.lft.to/lastmile_qr_scan"}, "lon": -122.40927904844284, "lat": 37.80717108096738, "capacity": 19, "name": "North Point St at Grant Ave", "region_id": "3", "station_id": "e01b3ae0-0543-484f-9085-bff4af3c174c"}, {"short_name": "SF-E28-2", "rental_uris": {"ios": "https://sfo.lft.to/lastmile_qr_scan", "android": "https://sfo.lft.to/lastmile_qr_scan"}, "lon": -122.3988357, "lat": 37.7930958, "capacity": 32, "name": "Front St at California St", "region_id": "3", "station_id": "987bd538-e619-4284-beb8-c13c65fcf38b"}, {"short_name": "OK-J4", "rental_uris": {"ios": "https://sfo.lft.to/lastmile_qr_scan", "android": "https://sfo.lft.to/lastmile_qr_scan"}, "lon": -122.27484405040741, "lat": 37.814988230424156, "capacity": 19, "name": "Isabella St at San Pablo Ave", "region_id": "12", "station_id": "e9b45d4b-900e-4d9f-bb75-74dcea012859"}, {"short_name": "SF-AA18", "rental_uris": {"ios": "https://sfo.lft.to/lastmile_qr_scan", "android": "https://sfo.lft.to/lastmile_qr_scan"}, "lon": -122.433823, "lat": 37.720038, "capacity": 19, "name": "Russia Ave at Madrid St", "region_id": "3", "station_id": "1854261997570128336"}, {"short_name": "SF-C20-2", "rental_uris": {"ios": "https://sfo.lft.to/lastmile_qr_scan", "android": "https://sfo.lft.to/lastmile_qr_scan"}, "lon": -122.4339891, "lat": 37.7974387, "capacity": 23, "name": "Webster St at Union St", "region_id": "3", "station_id": "8e8eb1c3-1792-46e7-9c03-eb60e4271a52"}, {"short_name": "SF-X29", "rental_uris": {"ios": "https://sfo.lft.to/lastmile_qr_scan", "android": "https://sfo.lft.to/lastmile_qr_scan"}, "lon": -122.39097297191618, "lat": 37.73309280990925, "capacity": 19, "name": "Quesada Ave at 3rd St", "region_id": "3", "station_id": "a6c2bd25-bdaf-4548-baeb-e203cfa52b3e"}, {"short_name": "SF-L29", "rental_uris": {"ios": "https://sfo.lft.to/lastmile_qr_scan", "android": "https://sfo.lft.to/lastmile_qr_scan"}, "lon": -122.39302754402159, "lat": 37.772300631747626, "capacity": 25, "name": "Mission Bay Kids Park", "region_id": "3", "station_id": "42952b44-cb91-43dd-bdbd-34e4f2a39046"}, {"short_name": "SF-D27-2", "rental_uris": {"ios": "https://sfo.lft.to/lastmile_qr_scan", "android": "https://sfo.lft.to/lastmile_qr_scan"}, "lon": -122.4036272, "lat": 37.7971765, "capacity": 15, "name": "Montgomery St at Pacific Ave", "region_id": "3", "station_id": "743f63f9-ee7d-46b9-9b71-2ac8ed0a4a26"}, {"short_name": "SF-K19", "rental_uris": {"ios": "https://sfo.lft.to/lastmile_qr_scan", "android": "https://sfo.lft.to/lastmile_qr_scan"}, "lon": -122.4358575, "lat": 37.772354, "capacity": 27, "name": "Page St at Scott St", "region_id": "3", "station_id": "5215d3e4-b85a-4499-a460-1b038f7a2bf1"}, {"short_name": "SF-C14", "rental_uris": {"ios": "https://sfo.lft.to/lastmile_qr_scan", "android": "https://sfo.lft.to/lastmile_qr_scan"}, "lon": -122.4556884, "lat": 37.7965927, "capacity": 19, "name": "MacArthur Ave at Fernandez St", "region_id": "3", "station_id": "748ac5c0-bb8c-4a55-9c56-6c91b2e859e1"}, {"short_name": "SF-G18", "rental_uris": {"ios": "https://sfo.lft.to/lastmile_qr_scan", "android": "https://sfo.lft.to/lastmile_qr_scan"}, "lon": -122.439361, "lat": 37.784419, "capacity": 31, "name": "Post St at Divisadero St", "region_id": "3", "station_id": "7dd926da-25ee-48fd-9de7-ad59a83f94a8"}, {"short_name": "EM-C2", "rental_uris": {"ios": "https://sfo.lft.to/lastmile_qr_scan", "android": "https://sfo.lft.to/lastmile_qr_scan"}, "lon": -122.2871801, "lat": 37.8361823, "capacity": 23, "name": "53rd St at Hollis St", "region_id": "13", "station_id": "31871354-8b20-4566-9044-f70ac57026dc"}, {"short_name": "SF-V32", "rental_uris": {"ios": "https://sfo.lft.to/lastmile_qr_scan", "android": "https://sfo.lft.to/lastmile_qr_scan"}, "lon": -122.3767840862274, "lat": 37.740321776391326, "capacity": 27, "name": "Heron's Head Park", "region_id": "3", "station_id": "c0d7ba8d-145a-40fc-aa06-f4c06fc49edb"}, {"short_name": "SF-BB17", "rental_uris": {"ios": "https://sfo.lft.to/lastmile_qr_scan", "android": "https://sfo.lft.to/lastmile_qr_scan"}, "lon": -122.440105676651, "lat": 37.71616094545787, "capacity": 16, "name": "London St at Geneva Ave", "region_id": "3", "station_id": "ec02b98c-1713-4033-9466-47146c77d476"}, {"short_name": "SF-X14", "rental_uris": {"ios": "https://sfo.lft.to/lastmile_qr_scan", "android": "https://sfo.lft.to/lastmile_qr_scan"}, "lon": -122.45171263340549, "lat": 37.728296112474, "capacity": 27, "name": "Judson Ave at Gennessee St", "region_id": "3", "station_id": "f503bee7-b169-43c4-a1ef-5b3ddd859a7a"}, {"short_name": "SF-Q21-1", "rental_uris": {"ios": "https://sfo.lft.to/lastmile_qr_scan", "android": "https://sfo.lft.to/lastmile_qr_scan"}, "lon": -122.4257846673065, "lat": 37.75497924740551, "capacity": 23, "name": "22nd St at Dolores St", "region_id": "3", "station_id": "578169a8-b821-427d-934e-0b5329577ea4"}, {"short_name": "BK-D10", "rental_uris": {"ios": "https://sfo.lft.to/lastmile_qr_scan", "android": "https://sfo.lft.to/lastmile_qr_scan"}, "lon": -122.25433029666107, "lat": 37.869394312305865, "capacity": 30, "name": "Bancroft Way at College Ave", "region_id": "14", "station_id": "a646ab7e-7396-4009-abb8-0b51171325ff"}, {"short_name": "SF-P6", "rental_uris": {"ios": "https://sfo.lft.to/lastmile_qr_scan", "android": "https://sfo.lft.to/lastmile_qr_scan"}, "lon": -122.4883438, "lat": 37.7539295, "capacity": 19, "name": "30th Ave at Noriega St", "region_id": "3", "station_id": "1774487681060536806"}, {"short_name": "SF-K24-3", "rental_uris": {"ios": "https://sfo.lft.to/lastmile_qr_scan", "android": "https://sfo.lft.to/lastmile_qr_scan"}, "lon": -122.4139142, "lat": 37.7744791, "capacity": 12, "name": "Howard St at Grace St", "region_id": "3", "station_id": "1716540857410079456"}, {"short_name": "SF-P24-2", "rental_uris": {"ios": "https://sfo.lft.to/lastmile_qr_scan", "android": "https://sfo.lft.to/lastmile_qr_scan"}, "lon": -122.414644, "lat": 37.757452, "capacity": 19, "name": "Folsom St at 21st St", "region_id": "3", "station_id": "2103180961104061324"}, {"short_name": "SF-B20", "rental_uris": {"ios": "https://sfo.lft.to/lastmile_qr_scan", "android": "https://sfo.lft.to/lastmile_qr_scan"}, "lon": -122.432759, "lat": 37.800494, "capacity": 23, "name": "Buchanan St at Lombard St", "region_id": "3", "station_id": "1883861960584512130"}, {"short_name": "SF-O18", "rental_uris": {"ios": "https://sfo.lft.to/lastmile_qr_scan", "android": "https://sfo.lft.to/lastmile_qr_scan"}, "lon": -122.4367975, "lat": 37.759211, "capacity": 19, "name": "Eureka Valley Recreation Center", "region_id": "3", "station_id": "38a49a05-7382-4a28-b6b1-b57c6fe99745"}, {"short_name": "SF-F30-3", "rental_uris": {"ios": "https://sfo.lft.to/lastmile_qr_scan", "android": "https://sfo.lft.to/lastmile_qr_scan"}, "lon": -122.39217904005017, "lat": 37.789073448898485, "capacity": 22, "name": "Folsom St at Main St", "region_id": "3", "station_id": "840ab61e-f6aa-4174-9881-5d57201ce1b9"}, {"short_name": "SF-E28", "rental_uris": {"ios": "https://sfo.lft.to/lastmile_qr_scan", "android": "https://sfo.lft.to/lastmile_qr_scan"}, "lon": -122.39997, "lat": 37.795001, "capacity": 39, "name": "Clay St at Battery St", "region_id": "3", "station_id": "ed1bf0f9-aa06-4f57-8cd6-5775ff3c29f0"}, {"short_name": "SF-G25", "rental_uris": {"ios": "https://sfo.lft.to/lastmile_qr_scan", "android": "https://sfo.lft.to/lastmile_qr_scan"}, "lon": -122.41327822208405, "lat": 37.7873267660624, "capacity": 19, "name": "Jones St at Post St", "region_id": "3", "station_id": "11547c9b-2e36-4fc5-9e81-9d5817ae35dc"}, {"short_name": "OK-L12", "rental_uris": {"ios": "https://sfo.lft.to/lastmile_qr_scan", "android": "https://sfo.lft.to/lastmile_qr_scan"}, "lon": -122.24237322807312, "lat": 37.79013985185364, "capacity": 15, "name": "San Antonio Park", "region_id": "12", "station_id": "6064907e-3871-4b2c-829b-d01406cee6fb"}, {"short_name": "SF-I21", "rental_uris": {"ios": "https://sfo.lft.to/lastmile_qr_scan", "android": "https://sfo.lft.to/lastmile_qr_scan"}, "lon": -122.42637355967727, "lat": 37.77834224666045, "capacity": 31, "name": "Fulton St at Laguna St", "region_id": "3", "station_id": "4f7840d9-aca0-4a53-8664-e9e043d21a72"}, {"short_name": "OK-C4", "rental_uris": {"ios": "https://sfo.lft.to/lastmile_qr_scan", "android": "https://sfo.lft.to/lastmile_qr_scan"}, "lon": -122.258732, "lat": 37.8388, "capacity": 19, "name": "Miles Ave at Cavour St", "region_id": "12", "station_id": "ffbf423a-2c1b-447a-a47d-9c1fddd152be"}, {"short_name": "SF-W29", "rental_uris": {"ios": "https://sfo.lft.to/lastmile_qr_scan", "android": "https://sfo.lft.to/lastmile_qr_scan"}, "lon": -122.38996982574461, "lat": 37.73629587217104, "capacity": 23, "name": "McKinnon Ave at 3rd St", "region_id": "3", "station_id": "ba3699d9-448e-4246-aa88-b7543383af4e"}, {"short_name": "SF-V29", "rental_uris": {"ios": "https://sfo.lft.to/lastmile_qr_scan", "android": "https://sfo.lft.to/lastmile_qr_scan"}, "lon": -122.38952457904814, "lat": 37.73890064447666, "capacity": 19, "name": "Jerrold Ave at 3rd St", "region_id": "3", "station_id": "9477b039-8d61-4917-b03a-43efb7d55c90"}, {"short_name": "SF-R20", "rental_uris": {"ios": "https://sfo.lft.to/lastmile_qr_scan", "android": "https://sfo.lft.to/lastmile_qr_scan"}, "lon": -122.427566, "lat": 37.750923, "capacity": 19, "name": "Jersey St at Church St", "region_id": "3", "station_id": "673c88d0-961a-45ff-b394-ac9a33e58d55"}, {"short_name": "SF-Y8", "rental_uris": {"ios": "https://sfo.lft.to/lastmile_qr_scan", "android": "https://sfo.lft.to/lastmile_qr_scan"}, "lon": -122.476561, "lat": 37.725603, "capacity": 15, "name": "SFSU Park East", "region_id": "3", "station_id": "f6aa360a-a056-4e50-ad1d-f67a35501595"}, {"short_name": "SF-X30", "rental_uris": {"ios": "https://sfo.lft.to/lastmile_qr_scan", "android": "https://sfo.lft.to/lastmile_qr_scan"}, "lon": -122.3898859765855, "lat": 37.731921207892626, "capacity": 19, "name": "Lane St at Revere Ave", "region_id": "3", "station_id": "dfaaaa16-03ba-40b5-8360-6ebfc97ea541"}, {"short_name": "OK-F5", "rental_uris": {"ios": "https://sfo.lft.to/lastmile_qr_scan", "android": "https://sfo.lft.to/lastmile_qr_scan"}, "lon": -122.2567156, "lat": 37.8277573, "capacity": 23, "name": "Broadway at 40th St", "region_id": "12", "station_id": "76d741e6-6b22-4d6a-a16f-8dbd7ab51c6f"}, {"short_name": "SF-H27-1", "rental_uris": {"ios": "https://sfo.lft.to/lastmile_qr_scan", "android": "https://sfo.lft.to/lastmile_qr_scan"}, "lon": -122.40087568759917, "lat": 37.78487208436062, "capacity": 19, "name": "Yerba Buena Center for the Arts", "region_id": "3", "station_id": "8b4f5169-6d0c-4d43-aa31-d243c5aec7ec"}, {"short_name": "SF I29-1", "rental_uris": {"ios": "https://sfo.lft.to/lastmile_qr_scan", "android": "https://sfo.lft.to/lastmile_qr_scan"}, "lon": -122.393378, "lat": 37.783176, "capacity": 27, "name": "Bryant St at 2nd St", "region_id": "3", "station_id": "8013d0b6-dd3a-4f9f-9fee-a1e6e21aef90"}, {"short_name": "BK-C9", "rental_uris": {"ios": "https://sfo.lft.to/lastmile_qr_scan", "android": "https://sfo.lft.to/lastmile_qr_scan"}, "lon": -122.2601554, "lat": 37.8753207, "capacity": 15, "name": "Euclid Ave at Hearst Ave", "region_id": "14", "station_id": "c8b190cd-c4a1-4597-bb18-3d9cc786e9cb"}, {"short_name": "SF-F30-1", "rental_uris": {"ios": "https://sfo.lft.to/lastmile_qr_scan", "android": "https://sfo.lft.to/lastmile_qr_scan"}, "lon": -122.391038, "lat": 37.7914015, "capacity": 36, "name": "The Embarcadero at Steuart St", "region_id": "3", "station_id": "6327ad76-fdd0-4ea8-a09a-f1bccca719b3"}, {"short_name": "SF-GGP-03", "rental_uris": {"ios": "https://sfo.lft.to/lastmile_qr_scan", "android": "https://sfo.lft.to/lastmile_qr_scan"}, "lon": -122.46593131805308, "lat": 37.77290764129927, "capacity": 27, "name": "8th Ave at JFK Dr", "region_id": "3", "station_id": "1838253785033265540"}, {"short_name": "SF-W14", "rental_uris": {"ios": "https://sfo.lft.to/lastmile_qr_scan", "android": "https://sfo.lft.to/lastmile_qr_scan"}, "lon": -122.45112150907515, "lat": 37.7316566899845, "capacity": 15, "name": "Gennessee St at Monterey Blvd", "region_id": "3", "station_id": "d09b983e-bbce-4501-9e3c-7dc0fe605ff3"}, {"short_name": "SF-F26-2", "rental_uris": {"ios": "https://sfo.lft.to/lastmile_qr_scan", "android": "https://sfo.lft.to/lastmile_qr_scan"}, "lon": -122.40548387640955, "lat": 37.78970984996185, "capacity": 33, "name": "Grant Ave at Sutter St", "region_id": "3", "station_id": "60e50c5b-b924-4c2d-83bb-c8fe97e6c4c3"}, {"short_name": "SF-J27", "rental_uris": {"ios": "https://sfo.lft.to/lastmile_qr_scan", "android": "https://sfo.lft.to/lastmile_qr_scan"}, "lon": -122.40269154310225, "lat": 37.77583378631289, "capacity": 19, "name": "Bryant St at 6th St", "region_id": "3", "station_id": "7d463937-ff3e-4fb2-802a-f5b7cca1159e"}, {"short_name": "SF-CC18", "rental_uris": {"ios": "https://sfo.lft.to/lastmile_qr_scan", "android": "https://sfo.lft.to/lastmile_qr_scan"}, "lon": -122.433405, "lat": 37.713185, "capacity": 23, "name": "Crocker-Amazon Playground", "region_id": "3", "station_id": "1854258814999361838"}, {"short_name": "OK-A2", "rental_uris": {"ios": "https://sfo.lft.to/lastmile_qr_scan", "android": "https://sfo.lft.to/lastmile_qr_scan"}, "lon": -122.26017236709595, "lat": 37.85022187449679, "capacity": 11, "name": "Telegraph Ave at Alcatraz Ave", "region_id": "12", "station_id": "790da352-5aaa-4bb9-8453-e8ec2f78c038"}, {"short_name": "SF-O21", "rental_uris": {"ios": "https://sfo.lft.to/lastmile_qr_scan", "android": "https://sfo.lft.to/lastmile_qr_scan"}, "lon": -122.4264353, "lat": 37.7614205, "capacity": 27, "name": "Mission Dolores Park", "region_id": "3", "station_id": "53bea4e6-b907-424c-b519-d286ffb713d8"}, {"short_name": "SF-I20", "rental_uris": {"ios": "https://sfo.lft.to/lastmile_qr_scan", "android": "https://sfo.lft.to/lastmile_qr_scan"}, "lon": -122.43194639682768, "lat": 37.78045005996349, "capacity": 23, "name": "Turk St at Fillmore St", "region_id": "3", "station_id": "9d47758e-44c7-4a16-a66a-efe7f942e7d1"}, {"short_name": "SF-H26-2", "rental_uris": {"ios": "https://sfo.lft.to/lastmile_qr_scan", "android": "https://sfo.lft.to/lastmile_qr_scan"}, "lon": -122.40731298923492, "lat": 37.78227952975499, "capacity": 15, "name": "Mint St at Mission St", "region_id": "3", "station_id": "8d2b8bc1-39ed-43c4-83ca-6da147d76bea"}, {"short_name": "OK-N6", "rental_uris": {"ios": "https://sfo.lft.to/lastmile_qr_scan", "android": "https://sfo.lft.to/lastmile_qr_scan"}, "lon": -122.27396965026855, "lat": 37.795194764385954, "capacity": 27, "name": "Webster St at 2nd St", "region_id": "12", "station_id": "7686b58c-88a3-4ca8-a898-d4bcccf520b3"}, {"short_name": "OK-I6-2", "rental_uris": {"ios": "https://sfo.lft.to/lastmile_qr_scan", "android": "https://sfo.lft.to/lastmile_qr_scan"}, "lon": -122.26424569694973, "lat": 37.81482406413866, "capacity": 23, "name": "26th St at Broadway", "region_id": "12", "station_id": "2092454487860292510"}, {"short_name": "SF-H25", "rental_uris": {"ios": "https://sfo.lft.to/lastmile_qr_scan", "android": "https://sfo.lft.to/lastmile_qr_scan"}, "lon": -122.411926, "lat": 37.7840775, "capacity": 23, "name": "Father Alfred E Boeddeker Park", "region_id": "3", "station_id": "b48ebe9a-8d7b-4ac1-b0da-db5978404330"}, {"short_name": "SF-P22", "rental_uris": {"ios": "https://sfo.lft.to/lastmile_qr_scan", "android": "https://sfo.lft.to/lastmile_qr_scan"}, "lon": -122.42090650026098, "lat": 37.75688041884717, "capacity": 23, "name": "21st St at Valencia St", "region_id": "3", "station_id": "08a1a4d2-e83a-4911-8743-41006698f4da"}, {"short_name": "OK-G6", "rental_uris": {"ios": "https://sfo.lft.to/lastmile_qr_scan", "android": "https://sfo.lft.to/lastmile_qr_scan"}, "lon": -122.2569505732544, "lat": 37.823143222649385, "capacity": 15, "name": "Piedmont Ave at MacArthur Blvd", "region_id": "12", "station_id": "2092455535832312750"}, {"short_name": "SF-L26", "rental_uris": {"ios": "https://sfo.lft.to/lastmile_qr_scan", "android": "https://sfo.lft.to/lastmile_qr_scan"}, "lon": -122.407054, "lat": 37.769263, "capacity": 27, "name": "Division St at Potrero Ave", "region_id": "3", "station_id": "2f20969c-74f7-4b6a-8e23-d4d1a31b75f5"}, {"short_name": "SF-S29", "rental_uris": {"ios": "https://sfo.lft.to/lastmile_qr_scan", "android": "https://sfo.lft.to/lastmile_qr_scan"}, "lon": -122.39044725894927, "lat": 37.7504343570623, "capacity": 15, "name": "Indiana St at Cesar Chavez St", "region_id": "3", "station_id": "6e52cb4a-6cd5-4d29-ad74-68e3b6aa854f"}, {"short_name": "SF-W19-2", "rental_uris": {"ios": "https://sfo.lft.to/lastmile_qr_scan", "android": "https://sfo.lft.to/lastmile_qr_scan"}, "lon": -122.429772, "lat": 37.734966, "capacity": 19, "name": "Arlington St at Roanoke St", "region_id": "3", "station_id": "71af92f2-0999-4917-b7da-36e122a8f967"}, {"short_name": "SF-K31", "rental_uris": {"ios": "https://sfo.lft.to/lastmile_qr_scan", "android": "https://sfo.lft.to/lastmile_qr_scan"}, "lon": -122.38780741579664, "lat": 37.77597429246344, "capacity": 23, "name": "China Basin Park", "region_id": "3", "station_id": "2109211836628411012"}, {"short_name": "OK-F2-2", "rental_uris": {"ios": "https://sfo.lft.to/lastmile_qr_scan", "android": "https://sfo.lft.to/lastmile_qr_scan"}, "lon": -122.272968, "lat": 37.834174, "capacity": 15, "name": "Market St at 45th St", "region_id": "12", "station_id": "bde0daf3-435d-4e6a-a477-ec9a4b4c17f7"}, {"short_name": "SF-N28", "rental_uris": {"ios": "https://sfo.lft.to/lastmile_qr_scan", "android": "https://sfo.lft.to/lastmile_qr_scan"}, "lon": -122.39899474395901, "lat": 37.76505849645157, "capacity": 27, "name": "Jackson Playground", "region_id": "3", "station_id": "40aad9cb-3190-4190-b73f-95aa661cec18"}, {"short_name": "SF-V28", "rental_uris": {"ios": "https://sfo.lft.to/lastmile_qr_scan", "android": "https://sfo.lft.to/lastmile_qr_scan"}, "lon": -122.3944985, "lat": 37.7370395, "capacity": 19, "name": "Oakdale Ave at Phelps St", "region_id": "3", "station_id": "9d5eb122-9e8b-49db-bf9c-a73c9e88c8d2"},